# LAS format data
~Version Information
VERS.     2.00: CWLS LOG ASCII STANDARD - VERSION 2.0
WRAP.       NO: ONE LINE PER DEPTH STEP
~Well Information
#MNEM   .UNITS    DATA                           DESCRIPTION
#----   ------    ----                           -----------
STRT    .M        3199.9004                     :First Index Value
STOP    .M        0.1002                        :Last Index Value
STEP    .M        -0.1000                       :Frame Spacing
NULL    .         -999.2500                     :Absent Value
WELL    .         BRH-01                   :Well Name   
FLD     .         GRONINGEN                     :Field Name  
CNTY    .                                       :County
STAT    .                                       :State
CTRY    .                                       :Country
LOC     .                                       :Location
API     .                                       :API Number
DATE    .                                       :Date
COMP    .         NAM                           :Company Name
SRVC    .                                       :Service Company
~Parameter Information
#MNEM   .UNITS    VALUE                          DESCRIPTION
#----   ------    -----                          -----------
TDL     .M        3022.00000                    :Total Depth (Logger)
TDD     .M        3022.00000                    :Total Depth (Driller)   
UBID    .         1135                          :Unique Borehole Id  
PDAT    .         Mean Sea Level                :Permanent Datum 
EPD     .M           0.00000                    :Elevation of Permanent Datum (PDAT) above Mean Sea Level
LMF     .         O.R.T.                        :Logging Measured From (Name of Logging Elevation Reference) 
APD     .M           6.78000                    :Elevation of Depth Reference (LMF) Above Permanent Datum
EDF     .M           6.78000                    :Elevation of Derrick Floor Above Mean Sea Level 
~Other Information
composite_curve_qc 
~Curve Information
#MNEM   .UNITS    API CODE                       CURVE DESCRIPTION
#----   ------    --------                       -----------------
DEPT    .M                                      :1     Index curve
GR      .GAPI                                   :2     SNAM  
DT      .US/F                                   :3     SNAM  
RHOB    .G/C3                                   :4     SNAM  
~Ascii Log Data
# ...
     311.3002     36.905144    188.835205   -999.250000
     311.2002     36.693420    189.792084   -999.250000
     311.1002     36.104073    189.508820   -999.250000
     311.0002     35.423714    189.050293   -999.250000
     310.9002     35.052238    189.756714   -999.250000
     310.8002     35.156265    192.075409   -999.250000
     310.7002     35.488602    195.053650   -999.250000
     310.6002     35.677414    198.726379   -999.250000
     310.5002     35.451302    202.504150   -999.250000
     310.4002     34.713959    204.345581   -999.250000
     310.3002     33.701752    204.468170   -999.250000
     310.2002     32.738548    204.104584   -999.250000
     310.1002     31.951820    202.949646   -999.250000
     310.0002     31.487473    197.018768   -999.250000
     309.9002     31.325821    186.105591   -999.250000
     309.8002     31.392231    177.993744   -999.250000
     309.7002     31.687534    175.650299   -999.250000
     309.6002     32.145363    176.746033   -999.250000
     309.5002     32.488907    178.843323   -999.250000
     309.4002     32.563728    180.263794   -999.250000
     309.3002     32.414299    180.582153   -999.250000
     309.2002     32.159027    180.315796   -999.250000
     309.1002     31.952904    179.946991   -999.250000
     309.0002     31.864513    179.647369   -999.250000
     308.9002     31.666393    180.140350   -999.250000
     308.8002     31.245762    181.240448   -999.250000
     308.7002     30.664215    182.292236   -999.250000
     308.6002     30.235611    182.401337   -999.250000
     308.5002     30.206181    181.652374   -999.250000
     308.4002     30.630161    180.641815   -999.250000
     308.3002     31.454773    179.352936   -999.250000
     308.2002     32.443382    177.942474   -999.250000
     308.1002     33.407707    176.716370   -999.250000
     308.0002     34.179962    175.920349   -999.250000
     307.9002     34.702019    175.380676   -999.250000
     307.8002     35.010490    174.698151   -999.250000
     307.7002     35.149338    173.955322   -999.250000
     307.6002     35.254051    173.379333   -999.250000
     307.5002     35.485497    173.036682   -999.250000
     307.4002     35.991341    172.939941   -999.250000
     307.3002     36.646118    172.960876   -999.250000
     307.2002     37.103157    172.915192   -999.250000
     307.1002     37.222580    172.816895   -999.250000
     307.0002     37.105484    172.987000   -999.250000
     306.9002     36.801712    174.245697   -999.250000
     306.8002     36.441971    177.335205   -999.250000
     306.7002     36.181549    181.586304   -999.250000
     306.6002     36.078011    184.378906   -999.250000
     306.5002     36.126663    184.936127   -999.250000
     306.4002     36.223213    184.905701   -999.250000
     306.3002     36.308182    183.707184   -999.250000
     306.2002     36.339478    182.416443   -999.250000
     306.1002     36.328827    183.484344   -999.250000
     306.0002     36.308334    185.846680   -999.250000
     305.9002     36.282425    187.895294   -999.250000
     305.8002     36.199150    188.728912   -999.250000
     305.7002     35.736725    188.944611   -999.250000
     305.6002     34.695145    189.333710   -999.250000
     305.5002     33.591011    189.835876   -999.250000
     305.4002     32.443283    190.438263   -999.250000
     305.3002     31.376911    190.511902   -999.250000
     305.2002     30.717281    188.778107   -999.250000
     305.1002     30.426785    185.895630   -999.250000
     305.0002     30.230995    183.462280   -999.250000
     304.9002     29.809654    181.974457   -999.250000
     304.8002     29.424305    181.169800   -999.250000
     304.7002     29.574142    180.395996   -999.250000
     304.6002     29.925003    180.295166   -999.250000
     304.5002     30.347347    180.763947   -999.250000
     304.4002     30.619572    181.094025   -999.250000
     304.3002     30.814865    181.354706   -999.250000
     304.2002     31.007263    181.531158   -999.250000
     304.1002     31.329048    181.582092   -999.250000
     304.0002     31.677063    181.518158   -999.250000
     303.9002     31.938351    181.366425   -999.250000
     303.8002     31.797771    181.296936   -999.250000
     303.7002     30.815765    181.314728   -999.250000
     303.6002     28.658512    181.418213   -999.250000
     303.5002     26.305149    181.480011   -999.250000
     303.4002     24.545639    181.396362   -999.250000
     303.3002     24.269619    181.066895   -999.250000
     303.2002     25.141666    180.626129   -999.250000
     303.1002     27.214642    180.101654   -999.250000
     303.0002     30.129044    179.521149   -999.250000
     302.9002     31.946777    178.893799   -999.250000
     302.8002     33.142815    178.140625   -999.250000
     302.7002     34.052582    177.281006   -999.250000
     302.6002     34.711807    176.599152   -999.250000
     302.5002     35.059982    175.989227   -999.250000
     302.4002     35.140068    175.303467   -999.250000
     302.3002     35.339676    174.615417   -999.250000
     302.2002     35.667015    174.124786   -999.250000
     302.1002     36.014191    174.005035   -999.250000
     302.0002     36.110550    173.944641   -999.250000
     301.9002     35.963196    175.028656   -999.250000
     301.8002     35.742386    178.251160   -999.250000
     301.7002     35.641724    181.974579   -999.250000
     301.6002     35.774178    184.462921   -999.250000
     301.5002     36.162628    184.445251   -999.250000
     301.4002     36.657951    184.106476   -999.250000
     301.3002     37.084213    183.777466   -999.250000
     301.2002     37.220863    182.398987   -999.250000
     301.1002     37.028625    177.368622   -999.250000
     301.0002     36.495331    171.920563   -999.250000
     300.9002     35.791519    170.645142   -999.250000
     300.8002     35.023659    170.839630   -999.250000
     300.7002     34.269051    172.194031   -999.250000
     300.6002     33.635445    174.669769   -999.250000
     300.5002     33.244659    176.522003   -999.250000
     300.4002     33.076263    177.357391   -999.250000
     300.3002     32.943619    178.158752   -999.250000
     300.2002     32.622269    180.348480   -999.250000
     300.1002     31.982670   -999.250000   -999.250000
     300.0002     31.138680   -999.250000   -999.250000
     299.9002     30.355007   -999.250000   -999.250000
     299.8002     29.872829   -999.250000   -999.250000
     299.7002     29.709961   -999.250000   -999.250000
     299.6002     29.714706   -999.250000   -999.250000
     299.5002     29.626514   -999.250000   -999.250000
     299.4002     29.292385   -999.250000   -999.250000
     299.3002     28.574928   -999.250000   -999.250000
     299.2002     27.595940   -999.250000   -999.250000
     299.1002     26.536694   -999.250000   -999.250000
     299.0002     26.081982   -999.250000   -999.250000
     298.9002     26.277866   -999.250000   -999.250000
     298.8002     26.720936   -999.250000   -999.250000
     298.7002     27.132515   -999.250000   -999.250000
     298.6002     27.462761   -999.250000   -999.250000
     298.5002     27.776520   -999.250000   -999.250000
     298.4002     28.157379   -999.250000   -999.250000
     298.3002     28.670757   -999.250000   -999.250000
     298.2002     29.364307   -999.250000   -999.250000
     298.1002     30.187344   -999.250000   -999.250000
     298.0002     30.983734   -999.250000   -999.250000
     297.9002     31.555721   -999.250000   -999.250000
     297.8002     31.642971   -999.250000   -999.250000
     297.7002     31.224201   -999.250000   -999.250000
     297.6002     30.384861   -999.250000   -999.250000
     297.5002   -999.250000   -999.250000   -999.250000
     297.4002   -999.250000   -999.250000   -999.250000
     297.3002   -999.250000   -999.250000   -999.250000
     297.2002   -999.250000   -999.250000   -999.250000
     297.1002   -999.250000   -999.250000   -999.250000
