# LAS format data
~Version Information
VERS.     2.00: CWLS LOG ASCII STANDARD - VERSION 2.0
WRAP.       NO: ONE LINE PER DEPTH STEP
~Well Information
#MNEM   .UNITS    DATA                           DESCRIPTION
#----   ------    ----                           -----------
STRT    .M        3199.9004                     :First Index Value
STOP    .M        0.1002                        :Last Index Value
STEP    .M        -0.1000                       :Frame Spacing
NULL    .         -999.2500                     :Absent Value
WELL    .         BRH-01                   :Well Name   
FLD     .         GRONINGEN                     :Field Name  
CNTY    .                                       :County
STAT    .                                       :State
CTRY    .                                       :Country
LOC     .                                       :Location
API     .                                       :API Number
DATE    .                                       :Date
COMP    .         NAM                           :Company Name
SRVC    .                                       :Service Company
~Parameter Information
#MNEM   .UNITS    VALUE                          DESCRIPTION
#----   ------    -----                          -----------
TDL     .M        3022.00000                    :Total Depth (Logger)
TDD     .M        3022.00000                    :Total Depth (Driller)   
UBID    .         1135                          :Unique Borehole Id  
PDAT    .         Mean Sea Level                :Permanent Datum 
EPD     .M           0.00000                    :Elevation of Permanent Datum (PDAT) above Mean Sea Level
LMF     .         O.R.T.                        :Logging Measured From (Name of Logging Elevation Reference) 
APD     .M           6.78000                    :Elevation of Depth Reference (LMF) Above Permanent Datum
EDF     .M           6.78000                    :Elevation of Derrick Floor Above Mean Sea Level 
~Other Information
composite_curve_qc 
~Curve Information
#MNEM   .UNITS    API CODE                       CURVE DESCRIPTION
#----   ------    --------                       -----------------
DEPT    .M                                      :1     Index curve
GR      .GAPI                                   :2     SNAM  
DT      .US/F                                   :3     SNAM  
RHOB    .G/C3                                   :4     SNAM  
~Ascii Log Data
# ...
    2728.0003      9.539822     66.259705      2.192348
    2727.9003      9.491257     66.252502      2.195022
    2727.8003      9.671232     66.340225      2.203495
    2727.7003     10.191259     66.473801      2.213451
    2727.6003     10.739065     66.546524      2.215148
    2727.5003     11.204500     66.582458      2.209363
    2727.4003     11.368093     66.659882      2.201773
    2727.3003     11.162058     66.766663      2.195955
    2727.2003     10.699360     66.861053      2.193684
    2727.1003     10.446983     66.840759      2.196867
    2727.0003     10.318541     66.756470      2.203475
    2726.9003     10.294405     66.656372      2.215171
    2726.8003     10.295630     66.666855      2.231815
    2726.7003     10.319521     66.764801      2.248059
    2726.6003     10.369593     66.868500      2.258696
    2726.5003     10.430748     66.831696      2.258308
    2726.4003     10.492142     66.969162      2.253985
    2726.3003     10.548922     67.220093      2.248125
    2726.2003     10.606955     67.084457      2.241245
    2726.1003     10.655567     66.908585      2.231739
    2726.0003     10.668039     66.864746      2.221458
    2725.9003     10.636433     66.860092      2.216503
    2725.8003     10.644432     66.962448      2.213884
    2725.7003     10.793978     67.163208      2.210599
    2725.6003     11.091410     67.272064      2.204731
    2725.5003     11.475416     67.212128      2.200748
    2725.4003     11.854609     67.081604      2.199977
    2725.3003     12.154106     67.225723      2.196157
    2725.2003     12.293852     67.401382      2.191012
    2725.1003     12.187393     67.360611      2.186932
    2725.0003     11.892313     67.167572      2.184671
    2724.9003     11.466797     66.965591      2.181629
    2724.8003     11.226732     66.888062      2.177229
    2724.7003     11.529900     66.876862      2.175414
    2724.6003     12.293182     66.954147      2.178490
    2724.5003     13.109085     67.048630      2.187577
    2724.4003     13.622786     67.023987      2.201587
    2724.3003     13.830536     66.964722      2.214890
    2724.2003     13.852676     66.988449      2.223116
    2724.1003     13.705061     67.095230      2.228031
    2724.0003     13.302620     67.121536      2.231843
    2723.9003     12.718454     67.043594      2.234496
    2723.8003     12.142471     67.087097      2.232020
    2723.7003     11.715628     67.328033      2.226857
    2723.6003     11.476826     67.586990      2.224665
    2723.5003     11.388735     67.537476      2.229740
    2723.4003     11.526367     67.305328      2.234428
    2723.3003     11.871494     67.162491      2.232183
    2723.2002     12.332144     67.192093      2.225262
    2723.1002     12.728577     67.215607      2.218185
    2723.0002     12.913328     67.104004      2.213147
    2722.9002     12.706970     66.938980      2.208680
    2722.8002     12.097744     66.809296      2.202122
    2722.7002     11.307936     66.732178      2.192792
    2722.6002     10.928371     66.703629      2.183184
    2722.5002     11.091684     66.739899      2.175408
    2722.4002     11.543583     66.854446      2.169579
    2722.3002     11.981945     67.137817      2.166702
    2722.2002     12.193895     67.316757      2.165578
    2722.1002     12.168463     67.164017      2.164196
    2722.0002     12.290062     67.170242      2.158371
    2721.9002     12.675112     67.375290      2.148250
    2721.8002     13.189587     67.481155      2.136548
    2721.7002     13.539841     67.411209      2.133458
    2721.6002     13.608963     67.263351      2.139177
    2721.5002     13.439903     67.126999      2.147547
    2721.4002     13.019306     67.121353      2.152171
    2721.3002     12.487490     67.189835      2.153586
    2721.2002     12.026312     67.186401      2.156168
    2721.1002     11.842747     67.204468      2.161844
    2721.0002     11.950014     67.340363      2.169084
    2720.9002     12.218895     67.580017      2.175084
    2720.8002     12.394068     67.685440      2.178911
    2720.7002     12.307434     67.535172      2.180800
    2720.6002     11.963846     67.238266      2.180596
    2720.5002     11.496494     67.128937      2.175547
    2720.4002     11.066576     67.297928      2.165798
    2720.3002     10.735960     67.368164      2.155880
    2720.2002     10.612253     67.274368      2.149961
    2720.1002     10.717419     67.172836      2.150092
    2720.0002     10.964653     67.151230      2.157511
    2719.9002     11.295774     67.137390      2.172045
    2719.8002     11.620386     67.047714      2.188253
    2719.7002     11.861294     67.099487      2.200071
    2719.6002     11.977602     67.237564      2.202923
    2719.5002     12.020508     67.185944      2.198723
    2719.4002     12.029699     67.077637      2.191196
    2719.3002     12.022533     66.961761      2.185569
    2719.2002     11.999992     66.778564      2.186062
    2719.1002     11.977777     66.684128      2.192635
    2719.0002     11.909832     66.808807      2.203296
    2718.9002     11.707577     67.007126      2.213277
    2718.8002     11.475492     67.162216      2.216352
    2718.7002     11.410213     67.206573      2.207689
    2718.6002     11.562759     67.342529      2.197484
    2718.5002     11.879814     67.512421      2.190029
    2718.4002     12.102894     67.537750      2.189271
    2718.3002     11.904501     67.282700      2.186812
    2718.2002     11.488277     66.953445      2.182940
    2718.1002     11.280182     66.912094      2.179098
    2718.0002     11.189972     66.959396      2.176118
    2717.9002     11.190527     67.065048      2.170789
    2717.8002     11.198626     67.141617      2.160880
    2717.7002     11.239563     67.134186      2.158726
    2717.6002     11.388763     67.086807      2.166167
    2717.5002     11.737804     67.145615      2.176698
    2717.4002     12.177856     67.278549      2.184770
    2717.3002     12.628912     67.390976      2.187737
    2717.2002     12.948292     67.272202      2.186445
    2717.1002     13.115974     67.037567      2.185131
    2717.0002     13.007454     66.781082      2.186121
    2716.9002     12.504824     66.683456      2.189738
    2716.8002     11.755920     66.677780      2.190511
    2716.7002     10.930428     66.748993      2.184776
    2716.6002     10.460379     66.864059      2.175292
    2716.5002     10.261223     67.009399      2.169194
    2716.4002     10.267118     67.131927      2.169725
    2716.3002     10.225826     67.102921      2.168545
    2716.2002     10.192192     67.042709      2.164641
    2716.1002     10.273275     67.016632      2.158108
    2716.0002     10.573330     66.950653      2.154377
    2715.9002     11.086607     66.906662      2.152456
    2715.8002     11.766455     66.967026      2.152228
    2715.7002     12.329006     67.112900      2.154588
    2715.6002     12.696306     67.212204      2.160204
    2715.5002     12.869839     67.146164      2.168024
    2715.4002     13.159712     67.091187      2.172015
    2715.3002     13.527552     67.093338      2.171178
    2715.2002     13.862246     67.193954      2.167192
    2715.1002     14.098068     67.308029      2.167723
    2715.0002     14.209869     67.409866      2.170199
    2714.9002     14.236492     67.464020      2.170270
    2714.8002     14.312811     67.491821      2.168873
    2714.7002     14.358286     67.510544      2.167944
    2714.6002     14.138058     67.539566      2.168198
    2714.5002     13.427786     67.564346      2.164877
    2714.4002     12.710340     67.578751      2.160785
    2714.3002     12.588327     67.586060      2.159795
    2714.2002     12.689333     67.598236      2.158180
    2714.1002     12.625742     67.615646      2.152968
    2714.0002     12.152699     67.626526      2.144891
    2713.9002     11.516840     67.610764      2.140114
    2713.8002     10.998146     67.545990      2.142033
