# LAS format data
~Version Information
VERS.     2.00: CWLS LOG ASCII STANDARD - VERSION 2.0
WRAP.       NO: ONE LINE PER DEPTH STEP
~Well Information
#MNEM   .UNITS    DATA                           DESCRIPTION
#----   ------    ----                           -----------
STRT    .M        3199.9004                     :First Index Value
STOP    .M        0.1002                        :Last Index Value
STEP    .M        -0.1000                       :Frame Spacing
NULL    .         -999.2500                     :Absent Value
WELL    .         BRH-01                   :Well Name   
FLD     .         GRONINGEN                     :Field Name  
CNTY    .                                       :County
STAT    .                                       :State
CTRY    .                                       :Country
LOC     .                                       :Location
API     .                                       :API Number
DATE    .                                       :Date
COMP    .         NAM                           :Company Name
SRVC    .                                       :Service Company
~Parameter Information
#MNEM   .UNITS    VALUE                          DESCRIPTION
#----   ------    -----                          -----------
TDL     .M        3022.00000                    :Total Depth (Logger)
TDD     .M        3022.00000                    :Total Depth (Driller)   
UBID    .         1135                          :Unique Borehole Id  
PDAT    .         Mean Sea Level                :Permanent Datum 
EPD     .M           0.00000                    :Elevation of Permanent Datum (PDAT) above Mean Sea Level
LMF     .         O.R.T.                        :Logging Measured From (Name of Logging Elevation Reference) 
APD     .M           6.78000                    :Elevation of Depth Reference (LMF) Above Permanent Datum
EDF     .M           6.78000                    :Elevation of Derrick Floor Above Mean Sea Level 
~Other Information
composite_curve_qc 
~Curve Information
#MNEM   .UNITS    API CODE                       CURVE DESCRIPTION
#----   ------    --------                       -----------------
DEPT    .M                                      :1     Index curve
GR      .GAPI                                   :2     SNAM  
DT      .US/F                                   :3     SNAM  
RHOB    .G/C3                                   :4     SNAM  
~Ascii Log Data
# ...
     854.7002     42.801376    183.962036   -999.250000
     854.6002     43.626549    182.999725   -999.250000
     854.5002     43.880814    183.273163   -999.250000
     854.4002     43.389084    183.077087   -999.250000
     854.3002     42.794350    182.297363   -999.250000
     854.2002     42.504562    181.230133   -999.250000
     854.1002     42.790459    179.996796   -999.250000
     854.0002     43.367218    177.926544   -999.250000
     853.9002     44.111732    176.356018   -999.250000
     853.8002     44.780983    177.285217   -999.250000
     853.7002     45.148499    180.031067   -999.250000
     853.6002     45.109901    183.178986   -999.250000
     853.5002     44.683517    184.973694   -999.250000
     853.4002     43.945152    187.835999   -999.250000
     853.3002     43.159081    190.955597   -999.250000
     853.2002     42.891739    191.023041   -999.250000
     853.1002     43.130737    188.011078   -999.250000
     853.0002     43.887978    182.429504   -999.250000
     852.9002     44.676903    178.158386   -999.250000
     852.8002     45.162155    175.647491   -999.250000
     852.7002     45.031670    175.201660   -999.250000
     852.6002     44.480690    175.293030   -999.250000
     852.5002     43.937012    176.026855   -999.250000
     852.4002     43.787109    177.257111   -999.250000
     852.3002     44.011047    177.815826   -999.250000
     852.2002     44.477798    178.215240   -999.250000
     852.1002     45.057190    178.897644   -999.250000
     852.0002     45.639427    179.588348   -999.250000
     851.9002     46.170296    180.220581   -999.250000
     851.8002     46.514023    180.512268   -999.250000
     851.7002     46.669556    180.089630   -999.250000
     851.6002     46.568115    178.477875   -999.250000
     851.5002     46.242065    176.413910   -999.250000
     851.4002     46.294792    178.889954   -999.250000
     851.3002     46.648399    183.536560   -999.250000
     851.2002     46.937119    184.374237   -999.250000
     851.1002     46.738914    180.677521   -999.250000
     851.0002     45.923973    175.218933   -999.250000
     850.9002     44.614281    174.090240   -999.250000
     850.8002     43.257751    173.871307   -999.250000
     850.7002     41.819885    175.580658   -999.250000
     850.6002     40.078209    180.705658   -999.250000
     850.5002     38.046013    186.550568   -999.250000
     850.4002     35.793510    191.480499   -999.250000
     850.3002     33.641548    194.202454   -999.250000
     850.2002     32.149254    196.596466   -999.250000
     850.1002     31.840668    198.493988   -999.250000
     850.0002     32.622566    198.894562   -999.250000
     849.9002     33.811760    198.507202   -999.250000
     849.8002     35.012711    197.308655   -999.250000
     849.7002     35.919655    195.216888   -999.250000
     849.6002     36.596199    192.045685   -999.250000
     849.5002     37.227180    189.156006   -999.250000
     849.4002     38.025627    189.051544   -999.250000
     849.3002     38.735123    190.686890   -999.250000
     849.2002     39.115662    194.044006   -999.250000
     849.1002     39.144928    198.961609   -999.250000
     849.0002     38.648933    202.426300   -999.250000
     848.9002     37.828613    202.912109   -999.250000
     848.8002     37.286774    202.249512   -999.250000
     848.7002     37.328362    199.579254   -999.250000
     848.6002     37.763664    193.871429   -999.250000
     848.5002     38.001526    185.346313   -999.250000
     848.4002     37.569099    180.351166   -999.250000
     848.3002     36.499306    181.066284   -999.250000
     848.2002     35.310005    182.512695   -999.250000
     848.1002     34.249603    183.258698   -999.250000
     848.0002     33.571350    183.148590   -999.250000
     847.9002     33.390404    182.749878   -999.250000
     847.8002     33.390358    182.182190   -999.250000
     847.7002     33.267609    181.510345   -999.250000
     847.6002     33.019287    180.806885   -999.250000
     847.5002     33.299866    180.321899   -999.250000
     847.4002     34.136703    180.839996   -999.250000
     847.3002     34.810188    183.712799   -999.250000
     847.2002     35.156723    187.367249   -999.250000
     847.1002     35.356308    190.294617   -999.250000
     847.0002     35.489479    192.698120   -999.250000
     846.9002     35.605568    192.489563   -999.250000
     846.8002     35.896973    189.817627   -999.250000
     846.7002     36.864853    188.731903   -999.250000
     846.6002     38.201912    188.308746   -999.250000
     846.5002     39.221191    186.543579   -999.250000
     846.4002     38.966957    184.289703   -999.250000
     846.3002     37.674416    183.083008   -999.250000
     846.2002     36.094528    183.278839   -999.250000
     846.1002     34.726189    184.185364   -999.250000
     846.0002     33.871376    184.980042   -999.250000
     845.9002     33.562599    185.430237   -999.250000
     845.8002     33.643799    186.525208   -999.250000
     845.7002     33.743317    190.190704   -999.250000
     845.6002     33.582169    196.919495   -999.250000
     845.5002     32.577545    202.167297   -999.250000
     845.4002     30.914860    203.961426   -999.250000
     845.3002     29.223103    203.787415   -999.250000
     845.2002     27.777176    199.945587   -999.250000
     845.1002     26.650455    193.879883   -999.250000
     845.0002     25.790565    188.981995   -999.250000
     844.9002     25.433670    185.758759   -999.250000
     844.8002     25.618725    183.717957   -999.250000
     844.7002     26.167561    182.552765   -999.250000
     844.6002     26.926506    182.404999   -999.250000
     844.5002     27.564762    183.355164   -999.250000
     844.4002     27.796200    185.560120   -999.250000
     844.3002     27.543148    188.433350   -999.250000
     844.2002     27.168186    191.067810   -999.250000
     844.1002     27.270416    193.384277   -999.250000
     844.0002     27.875034    193.703827   -999.250000
     843.9002     28.618542    191.430908   -999.250000
     843.8002     29.444870    188.808167   -999.250000
     843.7002     30.167641    187.999115   -999.250000
     843.6002     30.597950    189.640381   -999.250000
     843.5002     30.720486    191.929230   -999.250000
     843.4002     30.522511    194.168610   -999.250000
     843.3002     30.181934    196.533539   -999.250000
     843.2002     29.785931    198.640503   -999.250000
     843.1002     29.422764    200.230225   -999.250000
     843.0002     29.132343    201.696655   -999.250000
     842.9002     28.971287    202.705627   -999.250000
     842.8002     29.075504    202.579590   -999.250000
     842.7002     29.526619    200.628815   -999.250000
     842.6002     30.242966    195.226227   -999.250000
     842.5002     31.080799    186.031525   -999.250000
     842.4002     31.758316    178.205688   -999.250000
     842.3002     32.067009    173.439789   -999.250000
     842.2002     32.001595    173.619263   -999.250000
     842.1002     32.484200    175.945282   -999.250000
     842.0002     33.743660    180.933411   -999.250000
     841.9002     35.937019    187.726227   -999.250000
     841.8002     37.949081    190.428589   -999.250000
     841.7002     39.480423    190.374023   -999.250000
     841.6002     40.150970    190.908234   -999.250000
     841.5002     40.433571    191.558746   -999.250000
     841.4002     40.661339    191.929535   -999.250000
     841.3002     41.456833    191.251068   -999.250000
     841.2002     42.251709    189.920227   -999.250000
     841.1002     42.822388    188.132019   -999.250000
     841.0002     42.938393    186.698059   -999.250000
     840.9002     43.040993    185.628723   -999.250000
     840.8002     43.331711    184.951294   -999.250000
     840.7002     43.851906    184.806305   -999.250000
     840.6002     44.052223    186.210907   -999.250000
     840.5002     43.582031    188.669495   -999.250000
