# LAS format data
~Version Information
VERS.     2.00: CWLS LOG ASCII STANDARD - VERSION 2.0
WRAP.       NO: ONE LINE PER DEPTH STEP
~Well Information
#MNEM   .UNITS    DATA                           DESCRIPTION
#----   ------    ----                           -----------
STRT    .M        3199.9004                     :First Index Value
STOP    .M        0.1002                        :Last Index Value
STEP    .M        -0.1000                       :Frame Spacing
NULL    .         -999.2500                     :Absent Value
WELL    .         BRH-01                   :Well Name   
FLD     .         GRONINGEN                     :Field Name  
CNTY    .                                       :County
STAT    .                                       :State
CTRY    .                                       :Country
LOC     .                                       :Location
API     .                                       :API Number
DATE    .                                       :Date
COMP    .         NAM                           :Company Name
SRVC    .                                       :Service Company
~Parameter Information
#MNEM   .UNITS    VALUE                          DESCRIPTION
#----   ------    -----                          -----------
TDL     .M        3022.00000                    :Total Depth (Logger)
TDD     .M        3022.00000                    :Total Depth (Driller)   
UBID    .         1135                          :Unique Borehole Id  
PDAT    .         Mean Sea Level                :Permanent Datum 
EPD     .M           0.00000                    :Elevation of Permanent Datum (PDAT) above Mean Sea Level
LMF     .         O.R.T.                        :Logging Measured From (Name of Logging Elevation Reference) 
APD     .M           6.78000                    :Elevation of Depth Reference (LMF) Above Permanent Datum
EDF     .M           6.78000                    :Elevation of Derrick Floor Above Mean Sea Level 
~Other Information
composite_curve_qc 
~Curve Information
#MNEM   .UNITS    API CODE                       CURVE DESCRIPTION
#----   ------    --------                       -----------------
DEPT    .M                                      :1     Index curve
GR      .GAPI                                   :2     SNAM  
DT      .US/F                                   :3     SNAM  
RHOB    .G/C3                                   :4     SNAM  
~Ascii Log Data
# ...
     683.1003     53.119736    167.083588   -999.250000
     683.0003     54.395706    166.975403   -999.250000
     682.9003     55.354568    167.129120   -999.250000
     682.8003     55.581764    167.199097   -999.250000
     682.7003     55.179070    166.575775   -999.250000
     682.6003     54.087898    165.521454   -999.250000
     682.5003     52.571587    165.077881   -999.250000
     682.4003     51.238838    165.607056   -999.250000
     682.3003     50.431160    167.005310   -999.250000
     682.2003     50.390083    168.403320   -999.250000
     682.1003     50.685547    169.706085   -999.250000
     682.0003     51.239052    170.938751   -999.250000
     681.9003     51.900711    172.256897   -999.250000
     681.8003     52.609642    173.641907   -999.250000
     681.7003     53.378754    175.076874   -999.250000
     681.6003     54.148956    176.378448   -999.250000
     681.5003     54.798172    177.572021   -999.250000
     681.4003     55.284958    178.205750   -999.250000
     681.3003     55.734306    177.658356   -999.250000
     681.2003     56.249146    176.317535   -999.250000
     681.1003     57.099251    175.091461   -999.250000
     681.0003     58.412140    175.304962   -999.250000
     680.9003     59.780083    176.031158   -999.250000
     680.8003     60.483475    176.136353   -999.250000
     680.7003     60.043564    175.056915   -999.250000
     680.6003     58.862617    173.684265   -999.250000
     680.5003     57.414177    172.382202   -999.250000
     680.4003     55.997147    170.501648   -999.250000
     680.3003     54.821342    168.441711   -999.250000
     680.2002     54.456062    167.083618   -999.250000
     680.1002     55.252045    166.885925   -999.250000
     680.0002     56.788177    168.655212   -999.250000
     679.9002     58.352829    171.318024   -999.250000
     679.8002     59.628593    172.280090   -999.250000
     679.7002     60.349541    173.497406   -999.250000
     679.6002     60.442253    175.955017   -999.250000
     679.5002     59.969955    177.632812   -999.250000
     679.4002     58.941353    177.265076   -999.250000
     679.3002     57.602089    175.499207   -999.250000
     679.2002     56.222862    174.056458   -999.250000
     679.1002     55.312149    173.668976   -999.250000
     679.0002     55.083992    173.843140   -999.250000
     678.9002     55.446266    173.526001   -999.250000
     678.8002     56.010849    172.666687   -999.250000
     678.7002     56.341118    171.698212   -999.250000
     678.6002     56.102875    170.826599   -999.250000
     678.5002     55.202888    169.955811   -999.250000
     678.4002     53.877243    169.037628   -999.250000
     678.3002     52.417603    168.279144   -999.250000
     678.2002     50.994888    167.751831   -999.250000
     678.1002     49.672668    167.404846   -999.250000
     678.0002     48.440186    167.291229   -999.250000
     677.9002     47.363525    167.621643   -999.250000
     677.8002     46.513992    168.400635   -999.250000
     677.7002     46.080841    169.384491   -999.250000
     677.6002     45.939148    170.314667   -999.250000
     677.5002     45.855705    171.064087   -999.250000
     677.4002     45.821274    171.353333   -999.250000
     677.3002     46.018845    171.146454   -999.250000
     677.2002     46.556580    170.612732   -999.250000
     677.1002     47.253242    170.094788   -999.250000
     677.0002     47.774269    169.707581   -999.250000
     676.9002     47.952881    169.345367   -999.250000
     676.8002     47.617950    168.822357   -999.250000
     676.7002     47.025139    168.193481   -999.250000
     676.6002     46.549728    167.626251   -999.250000
     676.5002     47.033783    167.073151   -999.250000
     676.4002     48.415634    166.490326   -999.250000
     676.3002     49.866814    165.920959   -999.250000
     676.2002     50.851616    166.000702   -999.250000
     676.1002     51.358833    166.641205   -999.250000
     676.0002     51.671638    166.879059   -999.250000
     675.9002     51.635132    166.901276   -999.250000
     675.8002     51.111267    167.116089   -999.250000
     675.7002     50.086021    167.240204   -999.250000
     675.6002     49.031158    166.879730   -999.250000
     675.5002     48.521797    166.057617   -999.250000
     675.4002     48.770348    165.332520   -999.250000
     675.3002     49.646355    165.180511   -999.250000
     675.2002     50.631111    165.685608   -999.250000
     675.1002     51.547356    166.593506   -999.250000
     675.0002     52.518578    167.715607   -999.250000
     674.9002     53.763275    168.820374   -999.250000
     674.8002     55.030373    169.693207   -999.250000
     674.7002     56.008125    170.012512   -999.250000
     674.6002     56.512062    169.708740   -999.250000
     674.5002     56.473038    169.284332   -999.250000
     674.4002     55.998192    169.365906   -999.250000
     674.3002     55.701157    170.144958   -999.250000
     674.2002     55.629555    171.144409   -999.250000
     674.1002     55.580833    171.699036   -999.250000
     674.0002     54.954636    171.538574   -999.250000
     673.9002     53.955513    170.896606   -999.250000
     673.8002     52.880844    170.389923   -999.250000
     673.7002     51.907379    170.778809   -999.250000
     673.6002     51.117905    171.794220   -999.250000
     673.5002     50.691734    172.771698   -999.250000
     673.4002     50.533546    173.566895   -999.250000
     673.3002     50.734535    173.949615   -999.250000
     673.2002     51.290527    173.524780   -999.250000
     673.1002     51.821945    172.478149   -999.250000
     673.0002     52.189445    170.702423   -999.250000
     672.9002     52.290428    168.598267   -999.250000
     672.8002     52.545013    167.058319   -999.250000
     672.7002     52.871788    166.653168   -999.250000
     672.6002     52.809013    167.676575   -999.250000
     672.5002     52.418365    169.143036   -999.250000
     672.4002     51.628845    170.781067   -999.250000
     672.3002     50.562332    172.366241   -999.250000
     672.2002     49.430901    173.698578   -999.250000
     672.1002     48.478218    174.504028   -999.250000
     672.0002     47.944168    174.797424   -999.250000
     671.9002     47.704781    174.645935   -999.250000
     671.8002     47.687515    174.027435   -999.250000
     671.7002     47.559410    173.298584   -999.250000
     671.6002     47.244232    172.709259   -999.250000
     671.5002     46.840370    172.356262   -999.250000
     671.4002     46.853333    171.884583   -999.250000
     671.3002     47.266312    171.300323   -999.250000
     671.2002     48.038071    170.706757   -999.250000
     671.1002     48.829231    170.391632   -999.250000
     671.0002     49.556419    170.401520   -999.250000
     670.9002     50.049782    170.791382   -999.250000
     670.8002     50.213074    171.394257   -999.250000
     670.7002     49.992043    172.400452   -999.250000
     670.6002     49.590073    173.781342   -999.250000
     670.5002     49.596375    174.800476   -999.250000
     670.4002     49.920593    175.077820   -999.250000
     670.3002     50.250053    174.485626   -999.250000
     670.2002     50.306252    173.719635   -999.250000
     670.1002     50.028160    172.697388   -999.250000
     670.0002     49.450706    171.523407   -999.250000
     669.9002     48.613007    170.641083   -999.250000
     669.8002     47.909744    170.356323   -999.250000
     669.7002     47.749275    170.630096   -999.250000
     669.6002     47.957085    170.992737   -999.250000
     669.5002     48.413376    171.166809   -999.250000
     669.4002     48.888123    171.210571   -999.250000
     669.3002     49.239502    171.660980   -999.250000
     669.2002     49.453239    172.595581   -999.250000
     669.1002     49.605530    173.587097   -999.250000
     669.0002     49.740730    174.032104   -999.250000
     668.9002     49.804153    173.859192   -999.250000
