# LAS format data
~Version Information
VERS.     2.00: CWLS LOG ASCII STANDARD - VERSION 2.0
WRAP.       NO: ONE LINE PER DEPTH STEP
~Well Information
#MNEM   .UNITS    DATA                           DESCRIPTION
#----   ------    ----                           -----------
STRT    .M        3199.9004                     :First Index Value
STOP    .M        0.1002                        :Last Index Value
STEP    .M        -0.1000                       :Frame Spacing
NULL    .         -999.2500                     :Absent Value
WELL    .         BRH-01                   :Well Name   
FLD     .         GRONINGEN                     :Field Name  
CNTY    .                                       :County
STAT    .                                       :State
CTRY    .                                       :Country
LOC     .                                       :Location
API     .                                       :API Number
DATE    .                                       :Date
COMP    .         NAM                           :Company Name
SRVC    .                                       :Service Company
~Parameter Information
#MNEM   .UNITS    VALUE                          DESCRIPTION
#----   ------    -----                          -----------
TDL     .M        3022.00000                    :Total Depth (Logger)
TDD     .M        3022.00000                    :Total Depth (Driller)   
UBID    .         1135                          :Unique Borehole Id  
PDAT    .         Mean Sea Level                :Permanent Datum 
EPD     .M           0.00000                    :Elevation of Permanent Datum (PDAT) above Mean Sea Level
LMF     .         O.R.T.                        :Logging Measured From (Name of Logging Elevation Reference) 
APD     .M           6.78000                    :Elevation of Depth Reference (LMF) Above Permanent Datum
EDF     .M           6.78000                    :Elevation of Derrick Floor Above Mean Sea Level 
~Other Information
composite_curve_qc 
~Curve Information
#MNEM   .UNITS    API CODE                       CURVE DESCRIPTION
#----   ------    --------                       -----------------
DEPT    .M                                      :1     Index curve
GR      .GAPI                                   :2     SNAM  
DT      .US/F                                   :3     SNAM  
RHOB    .G/C3                                   :4     SNAM  
~Ascii Log Data
# ...
    1226.5003     11.241999     91.852463   -999.250000
    1226.4003     11.451273     92.605072   -999.250000
    1226.3003     11.341242     92.974106   -999.250000
    1226.2003     10.926361     92.614883   -999.250000
    1226.1003     10.369696     91.633591   -999.250000
    1226.0003      9.813934     90.321945   -999.250000
    1225.9003      9.485899     89.248337   -999.250000
    1225.8003      9.387243     88.649139   -999.250000
    1225.7003      9.378971     88.413391   -999.250000
    1225.6003      9.318228     88.657043   -999.250000
    1225.5003      9.164303     89.307144   -999.250000
    1225.4003      8.937670     90.216049   -999.250000
    1225.3003      8.783932     90.883072   -999.250000
    1225.2003      8.845165     91.070786   -999.250000
    1225.1003      9.257288     90.823456   -999.250000
    1225.0002      9.969910     90.059174   -999.250000
    1224.9002     10.783352     88.919220   -999.250000
    1224.8002     11.496506     87.714920   -999.250000
    1224.7002     11.894638     86.795349   -999.250000
    1224.6002     11.999094     86.274063   -999.250000
    1224.5002     11.983639     86.224564   -999.250000
    1224.4002     11.874653     86.683548   -999.250000
    1224.3002     11.641146     87.470444   -999.250000
    1224.2002     11.246397     88.287292   -999.250000
    1224.1002     10.818182     88.898376   -999.250000
    1224.0002     10.549923     89.246567   -999.250000
    1223.9002     10.674036     89.293686   -999.250000
    1223.8002     11.059727     89.040680   -999.250000
    1223.7002     11.326042     88.576492   -999.250000
    1223.6002     11.139355     87.934326   -999.250000
    1223.5002     10.578924     87.220718   -999.250000
    1223.4002     10.098545     86.592209   -999.250000
    1223.3002      9.846395     86.360748   -999.250000
    1223.2002      9.708197     86.526199   -999.250000
    1223.1002      9.344704     86.570984   -999.250000
    1223.0002      8.614042     86.488266   -999.250000
    1222.9002      7.848398     86.578354   -999.250000
    1222.8002      7.900823     87.268021   -999.250000
    1222.7002      8.497364     88.335068   -999.250000
    1222.6002      9.045078     89.387985   -999.250000
    1222.5002      9.447199     90.441589   -999.250000
    1222.4002      9.719625     91.528915   -999.250000
    1222.3002      9.861427     92.500854   -999.250000
    1222.2002      9.784954     93.221970   -999.250000
    1222.1002      9.549557     93.482498   -999.250000
    1222.0002      9.399370     93.209824   -999.250000
    1221.9002      9.330353     92.821014   -999.250000
    1221.8002      9.338696     92.410797   -999.250000
    1221.7002      9.385597     92.045532   -999.250000
    1221.6002      9.535185     91.711166   -999.250000
    1221.5002      9.884327     91.408264   -999.250000
    1221.4002     10.420130     91.143677   -999.250000
    1221.3002     10.924297     90.925339   -999.250000
    1221.2002     11.142355     90.895523   -999.250000
    1221.1002     10.939869     91.243423   -999.250000
    1221.0002     10.513832     91.841736   -999.250000
    1220.9002     10.038109     92.641693   -999.250000
    1220.8002      9.757925     93.518723   -999.250000
    1220.7002      9.709970     94.336258   -999.250000
    1220.6002      9.987787     94.797104   -999.250000
    1220.5002     10.446083     94.709991   -999.250000
    1220.4002     11.022806     94.150955   -999.250000
    1220.3002     11.636673     93.196777   -999.250000
    1220.2002     12.141722     92.190094   -999.250000
    1220.1002     12.348089     91.269791   -999.250000
    1220.0002     11.993164     90.619003   -999.250000
    1219.9002     11.361313     90.123917   -999.250000
    1219.8002     10.530912     89.922943   -999.250000
    1219.7002      9.660990     90.170853   -999.250000
    1219.6002      8.912155     90.549072   -999.250000
    1219.5002      8.353405     91.007904   -999.250000
    1219.4002      8.058611     91.480103   -999.250000
    1219.3002      7.977259     92.043823   -999.250000
    1219.2002      8.027113     92.730804   -999.250000
    1219.1002      8.010595     93.509567   -999.250000
    1219.0002      7.979029     94.188705   -999.250000
    1218.9002      8.017416     94.384598   -999.250000
    1218.8002      8.230595     93.784927   -999.250000
    1218.7002      8.553841     92.972122   -999.250000
    1218.6002      9.036587     92.052582   -999.250000
    1218.5002      9.649103     91.228851   -999.250000
    1218.4002     10.277920     90.864517   -999.250000
    1218.3002     10.759024     91.091568   -999.250000
    1218.2002     10.940718     91.598984   -999.250000
    1218.1002     10.938560     92.178146   -999.250000
    1218.0002     10.818321     92.735291   -999.250000
    1217.9002     10.667608     93.254562   -999.250000
    1217.8002     10.505873     93.753036   -999.250000
    1217.7002     10.305939     94.240021   -999.250000
    1217.6002     10.030277     94.741119   -999.250000
    1217.5002      9.698490     95.228973   -999.250000
    1217.4002      9.515017     95.636230   -999.250000
    1217.3002      9.648241     95.944046   -999.250000
    1217.2002      9.910099     96.144531   -999.250000
    1217.1002      9.921598     96.264404   -999.250000
    1217.0002      9.477045     96.368744   -999.250000
    1216.9002      8.973467     96.548676   -999.250000
    1216.8002      8.825676     96.863586   -999.250000
    1216.7002      9.107237     97.297409   -999.250000
    1216.6002      9.525896     97.591202   -999.250000
    1216.5002      9.742092     97.590988   -999.250000
    1216.4002      9.643049     97.343185   -999.250000
    1216.3002      9.259380     96.851883   -999.250000
    1216.2002      8.821869     96.187302   -999.250000
    1216.1002      8.561752     95.426697   -999.250000
    1216.0002      8.611813     94.498245   -999.250000
    1215.9002      8.924879     93.397217   -999.250000
    1215.8002      9.411940     92.199432   -999.250000
    1215.7002      9.921686     91.163605   -999.250000
    1215.6002     10.342190     90.521271   -999.250000
    1215.5002     10.621910     90.492355   -999.250000
    1215.4002     10.743284     91.063065   -999.250000
    1215.3002     10.734596     91.847641   -999.250000
    1215.2002     10.600304     92.330673   -999.250000
    1215.1002     10.291626     92.056793   -999.250000
    1215.0002      9.892845     91.109070   -999.250000
    1214.9002      9.649569     89.801758   -999.250000
    1214.8002      9.843878     88.387268   -999.250000
    1214.7002     10.420319     87.072021   -999.250000
    1214.6002     10.984892     86.153641   -999.250000
    1214.5002     11.275492     85.908371   -999.250000
    1214.4002     11.290762     86.264069   -999.250000
    1214.3002     10.984114     86.959183   -999.250000
    1214.2002     10.431152     87.829544   -999.250000
    1214.1002      9.791101     88.829285   -999.250000
    1214.0002      9.359493     89.953751   -999.250000
    1213.9002      9.312141     90.882660   -999.250000
    1213.8002      9.577570     91.353149   -999.250000
    1213.7002      9.908819     91.101791   -999.250000
    1213.6002     10.109493     90.463638   -999.250000
    1213.5002     10.182629     90.017715   -999.250000
    1213.4002     10.257090     89.768402   -999.250000
    1213.3002     10.455999     89.639908   -999.250000
    1213.2002     10.794970     89.657806   -999.250000
    1213.1002     11.058453     90.284256   -999.250000
    1213.0002     11.075109     91.610947   -999.250000
    1212.9002     10.907627     93.140106   -999.250000
    1212.8002     10.498777     94.449677   -999.250000
    1212.7002      9.878618     95.295761   -999.250000
    1212.6002      9.174135     95.812515   -999.250000
    1212.5002      8.768616     96.018661   -999.250000
    1212.4002      8.963152     96.038223   -999.250000
    1212.3002      9.436176     95.935181   -999.250000
