# LAS format data
~Version Information
VERS.     2.00: CWLS LOG ASCII STANDARD - VERSION 2.0
WRAP.       NO: ONE LINE PER DEPTH STEP
~Well Information
#MNEM   .UNITS    DATA                           DESCRIPTION
#----   ------    ----                           -----------
STRT    .M        3199.9004                     :First Index Value
STOP    .M        0.1002                        :Last Index Value
STEP    .M        -0.1000                       :Frame Spacing
NULL    .         -999.2500                     :Absent Value
WELL    .         BRH-01                   :Well Name   
FLD     .         GRONINGEN                     :Field Name  
CNTY    .                                       :County
STAT    .                                       :State
CTRY    .                                       :Country
LOC     .                                       :Location
API     .                                       :API Number
DATE    .                                       :Date
COMP    .         NAM                           :Company Name
SRVC    .                                       :Service Company
~Parameter Information
#MNEM   .UNITS    VALUE                          DESCRIPTION
#----   ------    -----                          -----------
TDL     .M        3022.00000                    :Total Depth (Logger)
TDD     .M        3022.00000                    :Total Depth (Driller)   
UBID    .         1135                          :Unique Borehole Id  
PDAT    .         Mean Sea Level                :Permanent Datum 
EPD     .M           0.00000                    :Elevation of Permanent Datum (PDAT) above Mean Sea Level
LMF     .         O.R.T.                        :Logging Measured From (Name of Logging Elevation Reference) 
APD     .M           6.78000                    :Elevation of Depth Reference (LMF) Above Permanent Datum
EDF     .M           6.78000                    :Elevation of Derrick Floor Above Mean Sea Level 
~Other Information
composite_curve_qc 
~Curve Information
#MNEM   .UNITS    API CODE                       CURVE DESCRIPTION
#----   ------    --------                       -----------------
DEPT    .M                                      :1     Index curve
GR      .GAPI                                   :2     SNAM  
DT      .US/F                                   :3     SNAM  
RHOB    .G/C3                                   :4     SNAM  
~Ascii Log Data
# ...
    1040.6003     11.093666    104.195633   -999.250000
    1040.5003     11.098276    104.202805   -999.250000
    1040.4003     11.040272    104.021637   -999.250000
    1040.3003     10.777010    103.601990   -999.250000
    1040.2003     10.198523    103.259048   -999.250000
    1040.1003      9.387892    102.954239   -999.250000
    1040.0003      8.443356    102.797165   -999.250000
    1039.9003      7.710637    102.980865   -999.250000
    1039.8003      7.282333    103.219894   -999.250000
    1039.7003      7.252605    103.343735   -999.250000
    1039.6003      7.444018    103.445541   -999.250000
    1039.5003      8.152298    103.441086   -999.250000
    1039.4003      9.397495    103.263733   -999.250000
    1039.3003     10.354397    103.014999   -999.250000
    1039.2003     10.777508    102.581665   -999.250000
    1039.1003     10.520231    102.089294   -999.250000
    1039.0003      9.958397    101.988983   -999.250000
    1038.9003      9.564192    102.063690   -999.250000
    1038.8003      9.718410    102.215530   -999.250000
    1038.7003     10.082924    102.702866   -999.250000
    1038.6003     10.571552    103.293472   -999.250000
    1038.5003     11.013468    103.652344   -999.250000
    1038.4003     11.316759    103.769272   -999.250000
    1038.3003     11.453402    103.706299   -999.250000
    1038.2003     11.443956    103.582611   -999.250000
    1038.1003     11.312614    103.439835   -999.250000
    1038.0003     11.007917    103.306549   -999.250000
    1037.9003     10.605639    103.196030   -999.250000
    1037.8003     10.300152    103.100403   -999.250000
    1037.7003     10.282600    103.085068   -999.250000
    1037.6003     10.520380    103.217285   -999.250000
    1037.5003     10.810263    103.564713   -999.250000
    1037.4003     10.967884    104.109253   -999.250000
    1037.3003     10.927799    104.714554   -999.250000
    1037.2003     10.690376    105.210327   -999.250000
    1037.1003     10.265871    105.403610   -999.250000
    1037.0003      9.732367    105.288086   -999.250000
    1036.9003      9.212713    105.004776   -999.250000
    1036.8003      8.793568    104.662048   -999.250000
    1036.7003      8.521969    104.309525   -999.250000
    1036.6003      8.633070    103.985992   -999.250000
    1036.5003      9.090866    103.685577   -999.250000
    1036.4003      9.691975    103.390656   -999.250000
    1036.3003     10.360996    103.088470   -999.250000
    1036.2003     11.061501    102.751648   -999.250000
    1036.1003     11.755819    102.379196   -999.250000
    1036.0003     12.334887    102.161072   -999.250000
    1035.9003     12.710772    102.242783   -999.250000
    1035.8003     12.869900    102.622986   -999.250000
    1035.7003     12.669147    103.049515   -999.250000
    1035.6003     12.338211    103.302048   -999.250000
    1035.5003     12.207392    103.325821   -999.250000
    1035.4003     12.373507    103.215134   -999.250000
    1035.3003     12.613714    103.061737   -999.250000
    1035.2003     12.671661    102.870453   -999.250000
    1035.1003     12.237774    102.463806   -999.250000
    1035.0003     11.390764    101.903534   -999.250000
    1034.9003     10.395807    101.418533   -999.250000
    1034.8003      9.650623    101.151352   -999.250000
    1034.7003      9.355909    101.091034   -999.250000
    1034.6003      9.514053    101.192825   -999.250000
    1034.5003      9.961288    101.478256   -999.250000
    1034.4003     10.442951    101.903641   -999.250000
    1034.3003     10.837194    102.386383   -999.250000
    1034.2003     11.086750    102.822388   -999.250000
    1034.1003     11.235128    103.121445   -999.250000
    1034.0003     11.334105    103.128571   -999.250000
    1033.9003     11.366356    102.824249   -999.250000
    1033.8003     11.285812    102.404907   -999.250000
    1033.7003     10.966272    102.061493   -999.250000
    1033.6003     10.465696    101.815872   -999.250000
    1033.5003     10.069223    101.559631   -999.250000
    1033.4003     10.141838    101.512909   -999.250000
    1033.3003     10.641832    101.645294   -999.250000
    1033.2003     10.996412    101.608444   -999.250000
    1033.1003     11.156734    101.410095   -999.250000
    1033.0003     11.117527    101.146896   -999.250000
    1032.9003     10.958073    100.979660   -999.250000
    1032.8003     10.652512    101.101166   -999.250000
    1032.7003     10.177347    101.392654   -999.250000
    1032.6003      9.678280    101.080673   -999.250000
    1032.5003      9.213306    100.315598   -999.250000
    1032.4003      8.930651     99.362015   -999.250000
    1032.3003      8.936462     98.398621   -999.250000
    1032.2003      9.222904     97.799042   -999.250000
    1032.1003      9.636517     98.053391   -999.250000
    1032.0003      9.916853     98.740814   -999.250000
    1031.9003     10.029846     99.702499   -999.250000
    1031.8003     10.005411    100.454849   -999.250000
    1031.7003      9.916315    100.974442   -999.250000
    1031.6003      9.788210    101.090836   -999.250000
    1031.5003      9.697567    100.696564   -999.250000
    1031.4003      9.654089    100.218735   -999.250000
    1031.3003      9.707434     99.846024   -999.250000
    1031.2003      9.915642     99.852158   -999.250000
    1031.1003     10.250767    100.247421   -999.250000
    1031.0003     10.717737    100.873352   -999.250000
    1030.9003     11.180580    101.073227   -999.250000
    1030.8003     11.497169    101.224396   -999.250000
    1030.7003     11.488560    101.318039   -999.250000
    1030.6003     11.163378    100.924637   -999.250000
    1030.5003     10.653576    100.208099   -999.250000
    1030.4003     10.137083     99.347092   -999.250000
    1030.3003      9.919266     98.733582   -999.250000
    1030.2003      9.955477     98.386765   -999.250000
    1030.1003     10.202074     98.452393   -999.250000
    1030.0003     10.387575     98.858475   -999.250000
    1029.9003     10.467314     99.392365   -999.250000
    1029.8003     10.390713     99.899139   -999.250000
    1029.7003     10.246044    100.519363   -999.250000
    1029.6003     10.073931    100.927490   -999.250000
    1029.5003      9.958075    100.906769   -999.250000
    1029.4003      9.958992    101.127441   -999.250000
    1029.3003     10.195208    101.340759   -999.250000
    1029.2003     10.715631    101.262039   -999.250000
    1029.1003     11.154331    101.209595   -999.250000
    1029.0003     11.349606    101.482986   -999.250000
    1028.9003     11.142059    102.236450   -999.250000
    1028.8003     10.683130    102.785599   -999.250000
    1028.7003      9.966703    102.943573   -999.250000
    1028.6003      9.120600    102.702393   -999.250000
    1028.5003      8.342051    102.287415   -999.250000
    1028.4003      7.832386    101.752533   -999.250000
    1028.3003      7.717510    101.191376   -999.250000
    1028.2003      7.933208    100.653015   -999.250000
    1028.1003      8.453768    100.462906   -999.250000
    1028.0003      9.092369    100.834030   -999.250000
    1027.9003      9.712130    101.497620   -999.250000
    1027.8003     10.146759    102.455124   -999.250000
    1027.7003     10.270414    103.560852   -999.250000
    1027.6003      9.979687    104.346527   -999.250000
    1027.5003      9.306429    104.459900   -999.250000
    1027.4003      8.522917    103.973587   -999.250000
    1027.3003      8.015165    103.069412   -999.250000
    1027.2003      7.965329    102.149841   -999.250000
    1027.1003      8.213228    101.549225   -999.250000
    1027.0003      8.584801    101.439941   -999.250000
    1026.9003      8.980953    101.541580   -999.250000
    1026.8003      9.387617    101.458160   -999.250000
    1026.7003      9.779200    101.143692   -999.250000
    1026.6003     10.100668    100.713348   -999.250000
    1026.5003     10.330013    100.274048   -999.250000
    1026.4003     10.325804     99.931427   -999.250000
