# LAS format data
~Version Information
VERS.     2.00: CWLS LOG ASCII STANDARD - VERSION 2.0
WRAP.       NO: ONE LINE PER DEPTH STEP
~Well Information
#MNEM   .UNITS    DATA                           DESCRIPTION
#----   ------    ----                           -----------
STRT    .M        3199.9004                     :First Index Value
STOP    .M        0.1002                        :Last Index Value
STEP    .M        -0.1000                       :Frame Spacing
NULL    .         -999.2500                     :Absent Value
WELL    .         BRH-01                   :Well Name   
FLD     .         GRONINGEN                     :Field Name  
CNTY    .                                       :County
STAT    .                                       :State
CTRY    .                                       :Country
LOC     .                                       :Location
API     .                                       :API Number
DATE    .                                       :Date
COMP    .         NAM                           :Company Name
SRVC    .                                       :Service Company
~Parameter Information
#MNEM   .UNITS    VALUE                          DESCRIPTION
#----   ------    -----                          -----------
TDL     .M        3022.00000                    :Total Depth (Logger)
TDD     .M        3022.00000                    :Total Depth (Driller)   
UBID    .         1135                          :Unique Borehole Id  
PDAT    .         Mean Sea Level                :Permanent Datum 
EPD     .M           0.00000                    :Elevation of Permanent Datum (PDAT) above Mean Sea Level
LMF     .         O.R.T.                        :Logging Measured From (Name of Logging Elevation Reference) 
APD     .M           6.78000                    :Elevation of Depth Reference (LMF) Above Permanent Datum
EDF     .M           6.78000                    :Elevation of Derrick Floor Above Mean Sea Level 
~Other Information
composite_curve_qc 
~Curve Information
#MNEM   .UNITS    API CODE                       CURVE DESCRIPTION
#----   ------    --------                       -----------------
DEPT    .M                                      :1     Index curve
GR      .GAPI                                   :2     SNAM  
DT      .US/F                                   :3     SNAM  
RHOB    .G/C3                                   :4     SNAM  
~Ascii Log Data
# ...
    2913.9005     52.000320     94.015991      2.241378
    2913.8005     53.545898     93.768326      2.235092
    2913.7005     54.396965     93.783676      2.233704
    2913.6005     54.434814     94.063110      2.241076
    2913.5005     54.019226     94.421112      2.255203
    2913.4005     53.510292     94.541916      2.274968
    2913.3005     53.285133     94.179794      2.294030
    2913.2005     53.462425     93.394257      2.307658
    2913.1005     53.916489     92.441895      2.317592
    2913.0005     54.425583     91.493469      2.323891
    2912.9005     54.853073     90.564789      2.326224
    2912.8005     55.114838     89.761398      2.322801
    2912.7005     55.110199     89.147827      2.315492
    2912.6005     54.843651     88.691574      2.307406
    2912.5005     54.708176     88.518311      2.298627
    2912.4005     54.864609     88.546295      2.287876
    2912.3005     55.212944     88.601440      2.274543
    2912.2005     55.630615     88.908020      2.267629
    2912.1005     56.108871     89.503708      2.269494
    2912.0005     56.699135     90.250656      2.276635
    2911.9005     56.903313     91.119202      2.285334
    2911.8005     56.798248     92.074890      2.293355
    2911.7005     56.848877     93.070084      2.300155
    2911.6005     57.156197     93.874603      2.304044
    2911.5005     57.894478     94.285141      2.309652
    2911.4005     59.418755     94.168671      2.325165
    2911.3005     60.709007     93.514542      2.332478
    2911.2005     60.964684     92.467941      2.321932
    2911.1005     60.106087     91.129379      2.300728
    2911.0005     58.430519     89.759064      2.275383
    2910.9005     56.479507     88.775818      2.254310
    2910.8005     54.765587     88.794174      2.251473
    2910.7005     53.473740     89.842651      2.262988
    2910.6005     52.619293     91.415192      2.276871
    2910.5005     52.352089     93.168564      2.288576
    2910.4005     52.818222     94.147125      2.294223
    2910.3005     53.797417     93.783356      2.292878
    2910.2005     54.929741     92.335281      2.286329
    2910.1005     55.659515     90.629532      2.280771
    2910.0005     55.728500     89.541519      2.281391
    2909.9005     55.462303     89.492096      2.286974
    2909.8005     55.224747     90.392746      2.294479
    2909.7005     55.117088     91.587402      2.300784
    2909.6005     54.454247     92.670685      2.302083
    2909.5005     53.294014     93.245132      2.302167
    2909.4005     52.569649     93.300003      2.309942
    2909.3005     52.775192     92.909058      2.321282
    2909.2005     53.380363     92.265457      2.330122
    2909.1005     52.912460     91.587341      2.335672
    2909.0005     51.653969     90.844345      2.337405
    2908.9005     50.539009     90.073929      2.335090
    2908.8005     50.216652     89.395767      2.329777
    2908.7005     50.703178     88.933273      2.326064
    2908.6005     51.578484     88.794937      2.328117
    2908.5005     52.292549     88.782928      2.328765
    2908.4005     52.328224     88.803284      2.322091
    2908.3005     51.425827     88.752914      2.303845
    2908.2005     50.418396     88.795563      2.282090
    2908.1005     49.184288     89.104401      2.259476
    2908.0005     47.709114     89.815018      2.237924
    2907.9005     47.119072     90.782196      2.214343
    2907.8005     47.946136     91.995193      2.190902
    2907.7005     49.818565     93.400436      2.173269
    2907.6005     51.762474     94.809647      2.165715
    2907.5005     52.882721     96.249756      2.167325
    2907.4005     52.345978     97.871231      2.166787
    2907.3005     51.426720     99.397430      2.169188
    2907.2005     51.243301    100.606674      2.183240
    2907.1005     52.793304    101.373795      2.217187
    2907.0005     54.719238    101.692139      2.259810
    2906.9005     55.773857    101.402283      2.304438
    2906.8005     54.954338    100.538437      2.338550
    2906.7005     53.133141     98.796204      2.358701
    2906.6005     51.091614     95.631073      2.357250
    2906.5005     49.833359     91.808807      2.340649
    2906.4005     49.321831     88.440323      2.313430
    2906.3005     49.480263     86.756134      2.282764
    2906.2005     49.462479     85.915176      2.264776
    2906.1005     49.425400     86.320740      2.259301
    2906.0005     49.781143     88.453583      2.265653
    2905.9005     50.901566     90.966843      2.274663
    2905.8005     52.074974     93.433136      2.285894
    2905.7005     52.087784     94.878143      2.297277
    2905.6005     51.633202     95.307983      2.306501
    2905.5005     51.376442     94.706467      2.312792
    2905.4005     52.226555     93.401566      2.316145
    2905.3005     52.951057     91.785995      2.320268
    2905.2005     53.424438     90.020828      2.325070
    2905.1005     53.618324     88.690598      2.326929
    2905.0005     53.649696     88.100586      2.319657
    2904.9005     53.511360     88.286911      2.308092
    2904.8005     53.354851     88.737900      2.304492
    2904.7005     53.485222     89.200836      2.304808
    2904.6005     54.039970     89.572876      2.306152
    2904.5005     54.830193     89.840042      2.305023
    2904.4005     55.541656     90.030945      2.305293
    2904.3005     55.886787     90.042648      2.308891
    2904.2005     55.751587     89.817596      2.313543
    2904.1005     55.116333     89.425568      2.311642
    2904.0005     54.193787     88.835098      2.301408
    2903.9005     53.441154     88.081116      2.290019
    2903.8005     52.955284     87.375427      2.285438
    2903.7005     51.879784     86.998077      2.288138
    2903.6005     49.432495     87.060242      2.291324
    2903.5005     46.732819     87.485031      2.296445
    2903.4005     44.791885     88.063644      2.299331
    2903.3005     43.764786     88.535492      2.294782
    2903.2005     43.548355     88.600800      2.289128
    2903.1005     43.881851     88.291962      2.287013
    2903.0005     44.467781     87.938812      2.287267
    2902.9005     45.466690     87.633148      2.285758
    2902.8005     46.892761     87.410324      2.281619
    2902.7005     48.542152     87.271133      2.277372
    2902.6005     50.144371     87.546326      2.277591
    2902.5005     51.926254     88.345261      2.296038
    2902.4005     54.384529     89.544586      2.345855
    2902.3005     57.644737     90.224442      2.388619
    2902.2005     60.620438     90.161652      2.401033
    2902.1005     62.019081     89.848373      2.391458
    2902.0005     61.749275     89.063492      2.375445
    2901.9005     60.459473     87.904175      2.362640
    2901.8005     58.466545     86.794495      2.353342
    2901.7005     56.744370     86.453979      2.345305
    2901.6005     55.635757     86.963699      2.336035
    2901.5005     54.668510     87.971725      2.323160
    2901.4005     53.586433     88.892868      2.308881
    2901.3005     52.462181     89.565094      2.296534
    2901.2005     51.524796     90.288895      2.289235
    2901.1005     51.115578     91.020340      2.291634
    2901.0005     51.229324     91.581528      2.302156
    2900.9005     51.725677     91.758942      2.314754
    2900.8005     52.478020     91.600479      2.323103
    2900.7005     53.379486     91.274551      2.325174
    2900.6005     54.342979     90.769699      2.318840
    2900.5005     54.948067     90.201019      2.312860
    2900.4005     54.934456     89.739304      2.314513
    2900.3005     54.286156     89.666794      2.317915
    2900.2005     53.415833     89.958664      2.317034
    2900.1005     52.779625     90.394424      2.311094
    2900.0005     52.989670     90.813477      2.301385
    2899.9005     53.789513     91.128708      2.292446
    2899.8005     54.467873     91.327652      2.287945
    2899.7005     54.627411     91.284912      2.282909
