# LAS format data
~Version Information
VERS.     2.00: CWLS LOG ASCII STANDARD - VERSION 2.0
WRAP.       NO: ONE LINE PER DEPTH STEP
~Well Information
#MNEM   .UNITS    DATA                           DESCRIPTION
#----   ------    ----                           -----------
STRT    .M        3199.9004                     :First Index Value
STOP    .M        0.1002                        :Last Index Value
STEP    .M        -0.1000                       :Frame Spacing
NULL    .         -999.2500                     :Absent Value
WELL    .         BRH-01                   :Well Name   
FLD     .         GRONINGEN                     :Field Name  
CNTY    .                                       :County
STAT    .                                       :State
CTRY    .                                       :Country
LOC     .                                       :Location
API     .                                       :API Number
DATE    .                                       :Date
COMP    .         NAM                           :Company Name
SRVC    .                                       :Service Company
~Parameter Information
#MNEM   .UNITS    VALUE                          DESCRIPTION
#----   ------    -----                          -----------
TDL     .M        3022.00000                    :Total Depth (Logger)
TDD     .M        3022.00000                    :Total Depth (Driller)   
UBID    .         1135                          :Unique Borehole Id  
PDAT    .         Mean Sea Level                :Permanent Datum 
EPD     .M           0.00000                    :Elevation of Permanent Datum (PDAT) above Mean Sea Level
LMF     .         O.R.T.                        :Logging Measured From (Name of Logging Elevation Reference) 
APD     .M           6.78000                    :Elevation of Depth Reference (LMF) Above Permanent Datum
EDF     .M           6.78000                    :Elevation of Derrick Floor Above Mean Sea Level 
~Other Information
composite_curve_qc 
~Curve Information
#MNEM   .UNITS    API CODE                       CURVE DESCRIPTION
#----   ------    --------                       -----------------
DEPT    .M                                      :1     Index curve
GR      .GAPI                                   :2     SNAM  
DT      .US/F                                   :3     SNAM  
RHOB    .G/C3                                   :4     SNAM  
~Ascii Log Data
# ...
    1641.2002     38.544029     82.042114      2.576172
    1641.1002     42.152618     83.815903      2.597283
    1641.0002     44.382927     85.205811      2.609476
    1640.9002     44.995743     85.925369      2.604693
    1640.8002     45.102264     85.776215      2.587579
    1640.7002     44.766502     85.074600      2.570187
    1640.6002     43.908157     84.010239      2.557860
    1640.5002     42.779762     83.141983      2.552075
    1640.4002     41.700386     82.447540      2.551426
    1640.3002     40.783966     82.018524      2.555838
    1640.2002     39.752998     81.815170      2.562191
    1640.1002     38.292351     81.742599      2.569483
    1640.0002     36.641434     81.734360      2.574350
    1639.9002     35.572311     81.681854      2.574032
    1639.8002     34.610420     81.439407      2.574592
    1639.7002     33.330055     80.862778      2.578869
    1639.6002     31.641998     80.047241      2.583105
    1639.5002     30.014420     79.187469      2.584964
    1639.4002     29.059387     78.440399      2.581765
    1639.3002     28.930557     77.784454      2.573964
    1639.2002     29.383121     77.298203      2.570276
    1639.1002     29.997509     77.007019      2.573877
    1639.0002     30.525135     76.834946      2.576656
    1638.9002     30.898788     76.852020      2.578481
    1638.8002     31.152451     77.087219      2.580598
    1638.7002     31.373241     77.484818      2.583727
    1638.6002     31.342892     77.999802      2.583611
    1638.5002     31.121899     78.475937      2.578223
    1638.4002     31.084873     78.747513      2.570200
    1638.3002     31.655979     79.069412      2.566365
    1638.2002     32.726265     79.563293      2.569512
    1638.1002     33.764069     80.008972      2.576431
    1638.0002     34.211090     80.241531      2.582869
    1637.9002     33.947556     80.326782      2.585699
    1637.8002     33.114731     80.466217      2.583489
    1637.7002     31.798878     80.494293      2.581213
    1637.6002     30.242569     80.147964      2.581056
    1637.5002     28.659153     79.125000      2.577951
    1637.4002     27.211704     77.620163      2.569430
    1637.3002     25.956959     76.085312      2.557671
    1637.2002     24.841007     74.810104      2.545440
    1637.1002     23.939159     73.912857      2.533518
    1637.0002     23.310673     73.341537      2.522337
    1636.9002     23.133060     73.167664      2.515658
    1636.8002     23.579758     73.333206      2.512675
    1636.7002     24.601089     73.697998      2.510998
    1636.6002     26.219986     74.320297      2.514367
    1636.5002     28.005234     75.476089      2.521144
    1636.4002     29.560925     77.231781      2.527537
    1636.3002     30.269958     78.943741      2.532994
    1636.2002     30.090382     80.054291      2.537878
    1636.1002     29.378395     80.527130      2.542483
    1636.0002     28.353687     80.271347      2.547505
    1635.9002     27.231571     79.490326      2.554805
    1635.8002     26.149014     78.473312      2.565776
    1635.7002     25.387932     77.274323      2.574638
    1635.6002     25.004143     75.996552      2.578089
    1635.5002     24.888626     74.790314      2.577075
    1635.4002     25.029644     73.851318      2.575486
    1635.3002     25.368958     73.166962      2.575375
    1635.2002     25.850178     72.607819      2.575533
    1635.1002     26.404919     72.278076      2.575595
    1635.0002     26.867180     72.242264      2.576367
    1634.9002     27.036148     72.459106      2.579247
    1634.8002     27.119534     72.965286      2.584475
    1634.7002     27.164101     73.563004      2.589642
    1634.6002     26.600426     73.797699      2.590480
    1634.5002     25.385384     73.538208      2.583830
    1634.4002     23.969910     73.008850      2.571605
    1634.3002     22.633999     72.431793      2.559707
    1634.2002     21.712284     71.854752      2.552033
    1634.1002     21.403297     71.285950      2.549975
    1634.0002     21.565601     70.806503      2.554260
    1633.9002     21.902622     70.467026      2.562529
    1633.8002     21.914776     70.220169      2.567276
    1633.7002     21.523674     69.992401      2.564695
    1633.6003     20.944416     69.797852      2.556462
    1633.5003     20.811916     69.743912      2.552959
    1633.4003     21.081047     69.870605      2.549084
    1633.3003     21.680622     70.192596      2.544242
    1633.2003     22.299633     70.552765      2.544783
    1633.1003     22.849213     70.947845      2.546003
    1633.0003     23.182545     71.347366      2.545488
    1632.9003     23.340710     71.722641      2.549184
    1632.8003     23.252537     72.063187      2.552693
    1632.7003     22.853039     72.334610      2.551325
    1632.6003     22.370872     72.573166      2.550982
    1632.5003     21.977257     72.816635      2.552477
    1632.4003     22.030033     73.129990      2.556034
    1632.3003     22.546898     73.527344      2.558116
    1632.2003     23.563477     74.046204      2.557701
    1632.1003     24.949612     74.727676      2.554620
    1632.0003     26.470177     75.511566      2.552348
    1631.9003     28.033115     76.398300      2.552386
    1631.8003     29.367180     77.345551      2.556166
    1631.7003     29.949188     78.172379      2.562524
    1631.6003     29.404076     78.664291      2.571860
    1631.5003     27.838741     78.634995      2.581206
    1631.4003     25.951202     78.358780      2.579629
    1631.3003     24.023346     77.782211      2.567759
    1631.2003     22.469826     76.822830      2.561999
    1631.1003     21.505936     75.703644      2.560625
    1631.0003     21.231686     74.572800      2.562530
    1630.9003     21.105927     73.639984      2.562858
    1630.8003     20.919308     72.818542      2.559500
    1630.7003     20.582550     72.121597      2.550756
    1630.6003     20.295658     71.596161      2.541153
    1630.5003     20.338978     71.240555      2.541615
    1630.4003     20.667599     71.054688      2.557698
    1630.3003     20.433552     70.921066      2.571700
    1630.2003     19.823372     70.778687      2.579989
    1630.1003     19.107349     70.560394      2.577264
    1630.0003     18.753216     70.289459      2.566041
    1629.9003     18.681843     70.026169      2.553903
    1629.8003     18.815670     69.858368      2.548622
    1629.7003     19.035633     69.815445      2.547787
    1629.6003     19.002647     69.973877      2.544406
    1629.5003     18.681019     70.362061      2.534035
    1629.4003     18.938889     70.790817      2.527110
    1629.3003     19.751850     71.227188      2.524305
    1629.2003     20.800629     71.576630      2.524026
    1629.1003     21.649105     71.798538      2.521360
    1629.0003     21.821354     71.808823      2.519660
    1628.9003     21.238705     71.596573      2.521623
    1628.8003     20.736450     71.293915      2.523312
    1628.7003     20.500423     70.894287      2.526216
    1628.6003     20.475388     70.512177      2.531812
    1628.5003     20.527283     70.414581      2.538363
    1628.4003     20.641529     70.631332      2.544653
    1628.3003     20.749023     70.917755      2.548468
    1628.2003     20.689381     70.994965      2.546016
    1628.1003     20.372868     70.841141      2.539257
    1628.0003     19.873508     70.612961      2.534052
    1627.9003     19.312748     70.387802      2.534438
    1627.8003     18.853477     70.192307      2.539759
    1627.7003     18.573750     70.032990      2.545769
    1627.6003     18.454365     69.956100      2.548932
    1627.5003     18.465370     70.016693      2.547516
    1627.4003     18.555267     70.178253      2.542775
    1627.3003     18.685120     70.266953      2.537285
    1627.2003     18.750671     70.206558      2.534654
    1627.1003     18.666885     70.048904      2.536046
    1627.0003     18.259907     69.865387      2.539064
