# LAS format data
~Version Information
VERS.     2.00: CWLS LOG ASCII STANDARD - VERSION 2.0
WRAP.       NO: ONE LINE PER DEPTH STEP
~Well Information
#MNEM   .UNITS    DATA                           DESCRIPTION
#----   ------    ----                           -----------
STRT    .M        3199.9004                     :First Index Value
STOP    .M        0.1002                        :Last Index Value
STEP    .M        -0.1000                       :Frame Spacing
NULL    .         -999.2500                     :Absent Value
WELL    .         BRH-01                   :Well Name   
FLD     .         GRONINGEN                     :Field Name  
CNTY    .                                       :County
STAT    .                                       :State
CTRY    .                                       :Country
LOC     .                                       :Location
API     .                                       :API Number
DATE    .                                       :Date
COMP    .         NAM                           :Company Name
SRVC    .                                       :Service Company
~Parameter Information
#MNEM   .UNITS    VALUE                          DESCRIPTION
#----   ------    -----                          -----------
TDL     .M        3022.00000                    :Total Depth (Logger)
TDD     .M        3022.00000                    :Total Depth (Driller)   
UBID    .         1135                          :Unique Borehole Id  
PDAT    .         Mean Sea Level                :Permanent Datum 
EPD     .M           0.00000                    :Elevation of Permanent Datum (PDAT) above Mean Sea Level
LMF     .         O.R.T.                        :Logging Measured From (Name of Logging Elevation Reference) 
APD     .M           6.78000                    :Elevation of Depth Reference (LMF) Above Permanent Datum
EDF     .M           6.78000                    :Elevation of Derrick Floor Above Mean Sea Level 
~Other Information
composite_curve_qc 
~Curve Information
#MNEM   .UNITS    API CODE                       CURVE DESCRIPTION
#----   ------    --------                       -----------------
DEPT    .M                                      :1     Index curve
GR      .GAPI                                   :2     SNAM  
DT      .US/F                                   :3     SNAM  
RHOB    .G/C3                                   :4     SNAM  
~Ascii Log Data
# ...
    2370.5002     17.914928     68.049957      2.069732
    2370.4002     17.577282     68.159531      2.072217
    2370.3002     16.977295     68.198425      2.073071
    2370.2002     16.348392     68.209702      2.068762
    2370.1002     15.789551     68.207748      2.062768
    2370.0002     15.416565     68.199310      2.058062
    2369.9002     15.203724     68.178406      2.055125
    2369.8002     15.013554     68.145523      2.054440
    2369.7002     14.650194     68.100967      2.056713
    2369.6002     14.137749     68.059814      2.060177
    2369.5002     13.780754     68.025131      2.064259
    2369.4002     13.980360     68.000076      2.068335
    2369.3002     14.392452     67.980560      2.072060
    2369.2002     14.963339     67.967606      2.075151
    2369.1002     15.531256     67.964828      2.077271
    2369.0002     15.856209     67.976395      2.079174
    2368.9002     15.932257     68.012115      2.080887
    2368.8002     15.802008     68.078873      2.081707
    2368.7002     15.526445     68.147339      2.079630
    2368.6002     15.097855     68.214478      2.074767
    2368.5002     14.637405     68.270081      2.070166
    2368.4002     14.327820     68.309677      2.069117
    2368.3002     14.249640     68.331818      2.072361
    2368.2002     14.370884     68.342178      2.077423
    2368.1002     14.500124     68.338242      2.081500
    2368.0002     14.556345     68.308670      2.082872
    2367.9002     14.515953     68.242157      2.081690
    2367.8002     14.468042     68.130402      2.080946
    2367.7002     14.510693     67.953506      2.081154
    2367.6002     14.746895     67.748596      2.080828
    2367.5002     15.165903     67.671280      2.080555
    2367.4002     15.753576     67.752686      2.081573
    2367.3002     16.319950     67.794601      2.084326
    2367.2002     16.556156     67.747360      2.084196
    2367.1002     16.223995     67.659500      2.079524
    2367.0002     15.615952     67.680389      2.075168
    2366.9002     15.126823     67.641541      2.074089
    2366.8002     15.015072     67.554840      2.075839
    2366.7002     15.079983     67.647995      2.074978
    2366.6002     15.205189     67.840363      2.071127
    2366.5002     15.245600     67.959351      2.066847
    2366.4002     15.147093     67.885300      2.066194
    2366.3002     14.765852     67.703735      2.067084
    2366.2002     14.136066     67.556824      2.066917
    2366.1002     13.521067     67.512833      2.065393
    2366.0002     13.174185     67.599228      2.065564
    2365.9002     13.185596     67.761444      2.068669
    2365.8002     13.398769     67.902313      2.072321
    2365.7002     13.801371     67.891983      2.074407
    2365.6002     14.328224     67.764130      2.073868
    2365.5002     14.907084     67.697510      2.071176
    2365.4002     15.376343     67.768097      2.066989
    2365.3002     15.650053     67.928162      2.063239
    2365.2002     15.791384     68.083023      2.061881
    2365.1002     15.824150     68.178757      2.063722
    2365.0002     15.771334     68.216675      2.067701
    2364.9002     15.630028     68.226166      2.072659
    2364.8002     15.405592     68.165085      2.078748
    2364.7002     15.142704     67.984497      2.085850
    2364.6002     14.873043     67.605148      2.093853
    2364.5002     14.666883     66.878906      2.100620
    2364.4002     14.571125     65.847275      2.106465
    2364.3002     14.656324     64.716354      2.116536
    2364.2002     15.247591     63.958130      2.165099
    2364.1002     16.440670     63.759735      2.261145
    2364.0002     18.132645     64.179428      2.371705
    2363.9002     20.019707     64.871475      2.442174
    2363.8002     21.794163     65.519257      2.451088
    2363.7002     22.654453     66.090469      2.383569
    2363.6002     22.203270     66.598862      2.286677
    2363.5002     20.707539     67.036041      2.211189
    2363.4002     18.940903     67.326431      2.164652
    2363.3002     17.392002     67.493088      2.134096
    2363.2002     16.121868     67.607895      2.109195
    2363.1002     15.178661     67.695419      2.092535
    2363.0002     14.484188     67.769760      2.083870
    2362.9002     13.920324     67.840485      2.079694
    2362.8002     13.558302     67.892365      2.078171
    2362.7002     13.376867     67.924377      2.076305
    2362.6002     13.297888     67.946671      2.071776
    2362.5002     13.264687     67.960342      2.065835
    2362.4002     13.158590     67.967178      2.062238
    2362.3002     12.864685     67.969696      2.064331
    2362.2002     12.412806     67.972397      2.070857
    2362.1002     11.933010     67.975922      2.078152
    2362.0002     11.546179     67.974396      2.083770
    2361.9002     11.341290     67.970917      2.086205
    2361.8002     11.304478     67.968094      2.085544
    2361.7002     11.331339     67.959641      2.082985
    2361.6002     11.423813     67.943741      2.078851
    2361.5002     11.566475     67.928848      2.073996
    2361.4002     11.663788     67.929672      2.069048
    2361.3002     11.646883     67.951492      2.065275
    2361.2002     11.526920     67.983276      2.063980
    2361.1002     11.348894     68.020233      2.065520
    2361.0002     11.172352     68.059952      2.070012
    2360.9002     11.077305     68.098831      2.075761
    2360.8002     11.130972     68.131653      2.082134
    2360.7002     11.411507     68.154312      2.086547
    2360.6002     11.856976     68.174683      2.086754
    2360.5002     12.431435     68.193253      2.083453
    2360.4002     13.018362     68.205856      2.079309
    2360.3002     13.502934     68.209793      2.078841
    2360.2002     13.847570     68.207657      2.080899
    2360.1002     13.960432     68.195221      2.082715
    2360.0002     13.898195     68.162048      2.080993
    2359.9002     13.757898     68.093170      2.080369
    2359.8002     13.606256     67.962189      2.085546
    2359.7002     13.269697     67.771576      2.089601
    2359.6002     12.846535     67.556290      2.089019
    2359.5002     12.521095     67.417984      2.079895
    2359.4002     12.280197     67.448425      2.068779
    2359.3002     11.999071     67.529251      2.058814
    2359.2002     11.469854     67.433807      2.054979
    2359.1002     10.893082     67.334671      2.054776
    2359.0002     10.352226     67.312546      2.057609
    2358.9002      9.956951     67.464874      2.060944
    2358.8002      9.720552     67.656158      2.064089
    2358.7002      9.661777     67.845261      2.066857
    2358.6002      9.726431     67.981003      2.068994
    2358.5002      9.891172     68.074890      2.069430
    2358.4002     10.140606     68.115234      2.066701
    2358.3002     10.378878     68.099152      2.060366
    2358.2002     10.578854     68.029205      2.054024
    2358.1002     10.718624     67.869980      2.049622
    2358.0002     10.800077     67.616486      2.048398
    2357.9002     10.855677     67.329285      2.050207
    2357.8002     10.893969     67.175308      2.057510
    2357.7002     10.913408     67.365051      2.072183
    2357.6002     10.912451     67.356750      2.094295
    2357.5002     10.894976     66.939316      2.125165
    2357.4002     10.885496     66.770432      2.156756
    2357.3002     10.851303     66.864105      2.174124
    2357.2002     10.752607     67.202759      2.165807
    2357.1002     10.603796     67.530075      2.149657
    2357.0002     10.456818     67.840912      2.130983
    2356.9002     10.370955     68.073654      2.116083
    2356.8002     10.319660     68.168350      2.103966
    2356.7002     10.323917     68.162292      2.095157
    2356.6002     10.385509     68.111923      2.090567
    2356.5002     10.438343     68.054672      2.088454
    2356.4002     10.449337     67.999435      2.087468
    2356.3002     10.392242     67.960876      2.084595
