# LAS format data
~Version Information
VERS.     2.00: CWLS LOG ASCII STANDARD - VERSION 2.0
WRAP.       NO: ONE LINE PER DEPTH STEP
~Well Information
#MNEM   .UNITS    DATA                           DESCRIPTION
#----   ------    ----                           -----------
STRT    .M        3199.9004                     :First Index Value
STOP    .M        0.1002                        :Last Index Value
STEP    .M        -0.1000                       :Frame Spacing
NULL    .         -999.2500                     :Absent Value
WELL    .         BRH-01                   :Well Name   
FLD     .         GRONINGEN                     :Field Name  
CNTY    .                                       :County
STAT    .                                       :State
CTRY    .                                       :Country
LOC     .                                       :Location
API     .                                       :API Number
DATE    .                                       :Date
COMP    .         NAM                           :Company Name
SRVC    .                                       :Service Company
~Parameter Information
#MNEM   .UNITS    VALUE                          DESCRIPTION
#----   ------    -----                          -----------
TDL     .M        3022.00000                    :Total Depth (Logger)
TDD     .M        3022.00000                    :Total Depth (Driller)   
UBID    .         1135                          :Unique Borehole Id  
PDAT    .         Mean Sea Level                :Permanent Datum 
EPD     .M           0.00000                    :Elevation of Permanent Datum (PDAT) above Mean Sea Level
LMF     .         O.R.T.                        :Logging Measured From (Name of Logging Elevation Reference) 
APD     .M           6.78000                    :Elevation of Depth Reference (LMF) Above Permanent Datum
EDF     .M           6.78000                    :Elevation of Derrick Floor Above Mean Sea Level 
~Other Information
composite_curve_qc 
~Curve Information
#MNEM   .UNITS    API CODE                       CURVE DESCRIPTION
#----   ------    --------                       -----------------
DEPT    .M                                      :1     Index curve
GR      .GAPI                                   :2     SNAM  
DT      .US/F                                   :3     SNAM  
RHOB    .G/C3                                   :4     SNAM  
~Ascii Log Data
# ...
    1412.4003     14.870308     75.203644   -999.250000
    1412.3003     14.939571     75.442596   -999.250000
    1412.2003     14.798283     75.401016   -999.250000
    1412.1003     14.594946     75.093445   -999.250000
    1412.0003     14.501162     74.570053   -999.250000
    1411.9003     14.633169     74.106552   -999.250000
    1411.8003     14.652229     73.844635   -999.250000
    1411.7003     14.298105     73.803955   -999.250000
    1411.6003     13.604794     73.702576   -999.250000
    1411.5003     12.761246     73.539169   -999.250000
    1411.4003     12.067701     73.360977   -999.250000
    1411.3003     11.836430     73.288757   -999.250000
    1411.2003     11.984550     73.284378   -999.250000
    1411.1003     12.429773     73.305664   -999.250000
    1411.0003     12.821709     73.320801   -999.250000
    1410.9003     13.096382     73.582245   -999.250000
    1410.8003     13.178684     74.237228   -999.250000
    1410.7003     13.138567     74.646027   -999.250000
    1410.6003     12.845484     74.756592   -999.250000
    1410.5003     12.275555     74.588638   -999.250000
    1410.4003     12.087545     74.542892   -999.250000
    1410.3003     12.370665     74.616959   -999.250000
    1410.2003     13.173771     74.723022   -999.250000
    1410.1003     13.982561     74.615570   -999.250000
    1410.0003     14.720516     74.496704   -999.250000
    1409.9003     15.261156     74.776810   -999.250000
    1409.8003     15.564610     75.209076   -999.250000
    1409.7003     15.572811     75.463058   -999.250000
    1409.6003     15.397667     75.090363   -999.250000
    1409.5003     15.468573     74.913696   -999.250000
    1409.4003     15.621634     74.997665   -999.250000
    1409.3003     15.310215     75.052872   -999.250000
    1409.2003     14.740482     74.974350   -999.250000
    1409.1003     14.291321     74.922653   -999.250000
    1409.0003     14.546213     75.260330   -999.250000
    1408.9003     14.554998     75.603180   -999.250000
    1408.8003     14.023539     75.675690   -999.250000
    1408.7003     13.460365     75.340820   -999.250000
    1408.6003     13.400232     74.935501   -999.250000
    1408.5003     13.905960     74.749237   -999.250000
    1408.4003     14.182615     74.921722   -999.250000
    1408.3003     14.086061     75.042007   -999.250000
    1408.2003     13.604149     74.908920   -999.250000
    1408.1003     13.193623     74.750549   -999.250000
    1408.0003     13.272068     74.669540   -999.250000
    1407.9003     14.016401     74.772964   -999.250000
    1407.8003     14.887594     75.029755   -999.250000
    1407.7003     15.772869     75.436874   -999.250000
    1407.6003     16.513733     75.925705   -999.250000
    1407.5003     17.083172     76.377014   -999.250000
    1407.4003     17.429550     76.740448   -999.250000
    1407.3003     17.544323     77.019623   -999.250000
    1407.2003     17.541218     77.306656   -999.250000
    1407.1003     17.355827     77.470322   -999.250000
    1407.0003     16.979519     77.425522   -999.250000
    1406.9003     16.490795     77.240082   -999.250000
    1406.8003     15.994072     77.051620   -999.250000
    1406.7003     15.694075     76.944336   -999.250000
    1406.6003     15.777931     76.858917   -999.250000
    1406.5003     16.227238     76.682526   -999.250000
    1406.4003     16.617516     76.385223   -999.250000
    1406.3003     16.406124     76.047577   -999.250000
    1406.2003     15.674685     75.766068   -999.250000
    1406.1003     14.827576     75.541748   -999.250000
    1406.0003     14.108288     75.280487   -999.250000
    1405.9003     13.721502     75.061264   -999.250000
    1405.8003     13.720432     75.015396   -999.250000
    1405.7003     14.156538     75.286575   -999.250000
    1405.6003     14.735262     75.464005   -999.250000
    1405.5003     15.067043     75.288589   -999.250000
    1405.4003     14.771923     74.996689   -999.250000
    1405.3003     14.178818     74.889557   -999.250000
    1405.2003     13.769981     75.018738   -999.250000
    1405.1003     13.804790     75.244461   -999.250000
    1405.0003     14.249147     75.435562   -999.250000
    1404.9003     14.897125     75.594910   -999.250000
    1404.8003     15.535688     76.023254   -999.250000
    1404.7003     16.049694     76.470016   -999.250000
    1404.6003     16.455509     76.608200   -999.250000
    1404.5003     16.856468     76.570312   -999.250000
    1404.4003     17.264339     76.660492   -999.250000
    1404.3003     17.638371     77.000107   -999.250000
    1404.2003     17.690617     77.060776   -999.250000
    1404.1003     17.286419     76.717300   -999.250000
    1404.0003     16.492714     76.228302   -999.250000
    1403.9003     15.431746     75.729416   -999.250000
    1403.8003     14.264952     75.291275   -999.250000
    1403.7003     13.084894     74.947922   -999.250000
    1403.6003     11.979994     74.693909   -999.250000
    1403.5003     11.086903     74.477539   -999.250000
    1403.4003     10.562780     74.257706   -999.250000
    1403.3003     10.500980     74.263855   -999.250000
    1403.2003     10.782286     74.485367   -999.250000
    1403.1003     11.281450     74.596832   -999.250000
    1403.0003     11.974304     74.614502   -999.250000
    1402.9003     12.778809     74.760345   -999.250000
    1402.8003     13.563295     75.226410   -999.250000
    1402.7003     14.184034     75.842682   -999.250000
    1402.6003     14.598721     76.319168   -999.250000
    1402.5003     14.905107     76.691788   -999.250000
    1402.4003     15.168619     77.293060   -999.250000
    1402.3003     15.431200     78.283905   -999.250000
    1402.2003     15.674633     78.943405   -999.250000
    1402.1003     15.944683     79.188202   -999.250000
    1402.0003     16.321102     79.491913   -999.250000
    1401.9003     16.845341     79.398605   -999.250000
    1401.8003     17.450260     78.635269   -999.250000
    1401.7003     17.801590     77.687973   -999.250000
    1401.6003     17.512291     76.788116   -999.250000
    1401.5003     16.330410     76.148956   -999.250000
    1401.4003     15.058319     75.801407   -999.250000
    1401.3003     13.818188     76.025024   -999.250000
    1401.2003     12.825260     76.812592   -999.250000
    1401.1003     12.206734     77.168152   -999.250000
    1401.0003     11.952847     77.468063   -999.250000
    1400.9003     12.015009     77.940262   -999.250000
    1400.8003     12.113367     77.820282   -999.250000
    1400.7003     12.176790     77.240448   -999.250000
    1400.6003     12.098969     76.621536   -999.250000
    1400.5003     11.987537     76.250549   -999.250000
    1400.4003     11.886044     75.931656   -999.250000
    1400.3003     11.895687     75.458954   -999.250000
    1400.2003     12.032669     75.578674   -999.250000
    1400.1003     12.328760     76.404114   -999.250000
    1400.0003     12.763041     77.579941   -999.250000
    1399.9003     13.263683     78.710861   -999.250000
    1399.8003     13.822878     79.669525   -999.250000
    1399.7003     14.433367     80.434418   -999.250000
    1399.6003     15.095644     80.951324   -999.250000
    1399.5003     15.788433     81.143005   -999.250000
    1399.4003     16.485203     81.216965   -999.250000
    1399.3003     17.221989     81.437103   -999.250000
    1399.2003     18.041073     81.773407   -999.250000
    1399.1003     18.888420     81.856598   -999.250000
    1399.0003     19.136223     82.093414   -999.250000
    1398.9003     18.445572     82.468262   -999.250000
    1398.8003     17.561081     82.342438   -999.250000
    1398.7003     16.845181     82.223206   -999.250000
    1398.6003     16.568146     82.425156   -999.250000
    1398.5003     16.488827     82.648758   -999.250000
    1398.4003     16.396526     82.618439   -999.250000
    1398.3003     16.017654     82.135239   -999.250000
    1398.2003     15.331381     81.616272   -999.250000
