# LAS format data
~Version Information
VERS.     2.00: CWLS LOG ASCII STANDARD - VERSION 2.0
WRAP.       NO: ONE LINE PER DEPTH STEP
~Well Information
#MNEM   .UNITS    DATA                           DESCRIPTION
#----   ------    ----                           -----------
STRT    .M        3199.9004                     :First Index Value
STOP    .M        0.1002                        :Last Index Value
STEP    .M        -0.1000                       :Frame Spacing
NULL    .         -999.2500                     :Absent Value
WELL    .         BRH-01                   :Well Name   
FLD     .         GRONINGEN                     :Field Name  
CNTY    .                                       :County
STAT    .                                       :State
CTRY    .                                       :Country
LOC     .                                       :Location
API     .                                       :API Number
DATE    .                                       :Date
COMP    .         NAM                           :Company Name
SRVC    .                                       :Service Company
~Parameter Information
#MNEM   .UNITS    VALUE                          DESCRIPTION
#----   ------    -----                          -----------
TDL     .M        3022.00000                    :Total Depth (Logger)
TDD     .M        3022.00000                    :Total Depth (Driller)   
UBID    .         1135                          :Unique Borehole Id  
PDAT    .         Mean Sea Level                :Permanent Datum 
EPD     .M           0.00000                    :Elevation of Permanent Datum (PDAT) above Mean Sea Level
LMF     .         O.R.T.                        :Logging Measured From (Name of Logging Elevation Reference) 
APD     .M           6.78000                    :Elevation of Depth Reference (LMF) Above Permanent Datum
EDF     .M           6.78000                    :Elevation of Derrick Floor Above Mean Sea Level 
~Other Information
composite_curve_qc 
~Curve Information
#MNEM   .UNITS    API CODE                       CURVE DESCRIPTION
#----   ------    --------                       -----------------
DEPT    .M                                      :1     Index curve
GR      .GAPI                                   :2     SNAM  
DT      .US/F                                   :3     SNAM  
RHOB    .G/C3                                   :4     SNAM  
~Ascii Log Data
# ...
    2184.6005     18.041710     67.852753      2.068563
    2184.5005     17.669128     67.851776      2.066751
    2184.4005     17.316475     67.855316      2.067050
    2184.3005     17.044800     67.862762      2.065750
    2184.2005     17.010471     67.868225      2.063528
    2184.1005     17.219261     67.869751      2.062343
    2184.0005     17.597198     67.869873      2.063228
    2183.9005     18.071003     67.869873      2.063948
    2183.8005     18.573090     67.869873      2.063519
    2183.7005     19.062183     67.869873      2.064133
    2183.6005     19.591648     67.869873      2.067252
    2183.5005     20.157230     67.871292      2.071589
    2183.4005     20.618252     67.878662      2.073466
    2183.3005     20.826115     67.883881      2.072856
    2183.2005     20.856071     67.878830      2.071915
    2183.1005     21.117725     67.865967      2.071402
    2183.0005     21.678577     67.854233      2.070339
    2182.9005     22.206436     67.850220      2.068059
    2182.8005     22.175838     67.849854      2.066941
    2182.7005     21.505741     67.849854      2.068252
    2182.6005     20.675461     67.849854      2.070650
    2182.5005     19.920845     67.849854      2.071403
    2182.4005     19.321373     67.849854      2.069881
    2182.3005     18.796494     67.849854      2.068511
    2182.2005     18.281693     67.849854      2.068487
    2182.1005     17.841331     67.849854      2.069072
    2182.0005     17.639370     67.849854      2.067632
    2181.9005     17.821701     67.849854      2.063776
    2181.8005     18.294327     67.849854      2.060216
    2181.7005     18.593117     67.849854      2.061615
    2181.6005     18.702427     67.849854      2.066213
    2181.5005     18.668911     67.849854      2.068417
    2181.4005     18.551674     67.849854      2.065349
    2181.3005     18.366005     67.849854      2.060434
    2181.2005     18.173916     67.849854      2.060313
    2181.1005     18.008652     67.849854      2.063253
    2181.0005     17.865036     67.849854      2.067143
    2180.9005     17.725483     67.849930      2.068144
    2180.8005     17.672112     67.850266      2.067781
    2180.7005     17.954628     67.851227      2.066785
    2180.6005     18.813656     67.852722      2.066464
    2180.5005     19.879128     67.853455      2.066234
    2180.4005     20.653011     67.855774      2.065226
    2180.3005     20.396076     67.864120      2.062894
    2180.2005     19.588284     67.869873      2.062789
    2180.1005     18.542439     67.869934      2.066630
    2180.0005     17.888630     67.870850      2.071236
    2179.9005     17.759022     67.875336      2.073354
    2179.8005     18.188385     67.882980      2.071072
    2179.7005     18.535980     67.885330      2.068336
    2179.6005     18.793365     67.886536      2.066826
    2179.5005     18.925327     67.889053      2.068107
    2179.4005     18.943329     67.889893      2.070406
    2179.3005     18.819927     67.890106      2.071126
    2179.2005     18.454777     67.892410      2.066678
    2179.1005     17.843143     67.900177      2.058980
    2179.0005     17.045670     67.909683      2.053084
    2178.9005     16.145912     67.916901      2.055090
    2178.8005     15.367079     67.924545      2.058613
    2178.7005     14.852709     67.929932      2.062976
    2178.6005     14.764870     67.929932      2.066580
    2178.5005     14.774843     67.930069      2.067990
    2178.4004     14.847538     67.931992      2.066810
    2178.3004     14.895428     67.935989      2.064056
    2178.2004     14.930525     67.934631      2.063199
    2178.1004     14.913269     67.930450      2.064735
    2178.0004     14.770271     67.929901      2.067477
    2177.9004     14.481541     67.929459      2.068981
    2177.8004     14.004393     67.925217      2.066854
    2177.7004     13.411713     67.913666      2.060887
    2177.6004     12.845329     67.899918      2.057982
    2177.5004     12.451366     67.886353      2.060341
    2177.4004     12.300835     67.874054      2.065759
    2177.3004     12.327435     67.861313      2.072230
    2177.2004     12.550264     67.854599      2.077024
    2177.1004     12.909689     67.864349      2.077794
    2177.0004     13.378263     67.900192      2.075581
    2176.9004     13.952099     67.987900      2.071999
    2176.8004     14.578499     68.122055      2.069193
    2176.7004     15.147669     68.228439      2.065124
    2176.6004     15.568491     68.218704      2.058785
    2176.5004     15.855621     68.087555      2.051890
    2176.4004     15.995939     67.954819      2.049812
    2176.3004     16.035080     67.889404      2.053685
    2176.2004     16.063774     67.861938      2.058871
    2176.1004     16.063732     67.859833      2.061467
    2176.0004     15.953896     67.869308      2.060281
    2175.9004     15.687017     67.880615      2.057564
    2175.8004     15.188858     67.902344      2.057138
    2175.7004     14.456964     67.937149      2.059752
    2175.6004     13.579121     67.977997      2.062972
    2175.5004     12.643202     67.991287      2.064761
    2175.4004     11.869188     67.962494      2.064306
    2175.3004     11.470568     67.902847      2.061963
    2175.2004     11.560535     67.893845      2.058929
    2175.1004     11.913975     67.971405      2.057252
    2175.0004     12.242720     68.116913      2.058527
    2174.9004     12.421757     68.146210      2.061147
    2174.8004     12.479725     68.032761      2.063498
    2174.7004     12.493151     67.906906      2.065681
    2174.6004     12.494995     67.967880      2.066394
    2174.5004     12.496613     68.185287      2.064639
    2174.4004     12.503201     68.366867      2.059796
    2174.3004     12.577291     68.399231      2.055414
    2174.2004     12.735205     68.327316      2.053539
    2174.1004     12.957891     68.251572      2.052990
    2174.0004     13.316214     68.183395      2.051777
    2173.9004     13.796747     68.104050      2.050045
    2173.8004     14.239336     68.023834      2.051016
    2173.7004     14.443356     67.967804      2.053942
    2173.6004     14.370201     67.941147      2.056256
    2173.5004     13.999695     67.939392      2.055633
    2173.4004     13.461617     67.943329      2.053852
    2173.3004     12.906429     67.939636      2.053291
    2173.2004     12.440943     67.935806      2.054150
    2173.1004     12.090626     67.938004      2.056287
    2173.0004     11.823067     67.947067      2.059435
    2172.9004     11.624104     67.983444      2.062175
    2172.8004     11.496311     68.086060      2.063452
    2172.7004     11.439198     68.266983      2.063380
    2172.6004     11.479704     68.346054      2.064161
    2172.5004     11.582846     68.312820      2.066960
    2172.4004     11.681187     68.326569      2.071050
    2172.3004     11.759201     68.421036      2.072243
    2172.2004     11.796797     68.505630      2.068611
    2172.1004     11.768686     68.455811      2.062292
    2172.0004     11.779325     68.286774      2.056450
    2171.9004     11.940979     68.141403      2.053843
    2171.8004     12.239836     68.181259      2.054192
    2171.7004     12.475729     68.284592      2.057985
    2171.6004     12.475758     68.268539      2.064107
    2171.5004     12.380209     68.171265      2.069846
    2171.4004     12.383863     68.048889      2.072264
    2171.3004     12.625059     67.974304      2.069791
    2171.2004     12.901524     67.939316      2.065323
    2171.1004     13.191195     67.949173      2.061107
    2171.0004     13.495741     67.992401      2.059860
    2170.9004     13.768185     68.052841      2.060124
    2170.8004     13.995445     68.106110      2.061845
    2170.7004     14.181719     68.109665      2.064347
    2170.6004     14.304283     68.068069      2.066838
    2170.5004     14.289200     67.997269      2.068855
    2170.4004     14.086761     67.954041      2.070348
