# LAS format data
~Version Information
VERS.     2.00: CWLS LOG ASCII STANDARD - VERSION 2.0
WRAP.       NO: ONE LINE PER DEPTH STEP
~Well Information
#MNEM   .UNITS    DATA                           DESCRIPTION
#----   ------    ----                           -----------
STRT    .M        3199.9004                     :First Index Value
STOP    .M        0.1002                        :Last Index Value
STEP    .M        -0.1000                       :Frame Spacing
NULL    .         -999.2500                     :Absent Value
WELL    .         BRH-01                   :Well Name   
FLD     .         GRONINGEN                     :Field Name  
CNTY    .                                       :County
STAT    .                                       :State
CTRY    .                                       :Country
LOC     .                                       :Location
API     .                                       :API Number
DATE    .                                       :Date
COMP    .         NAM                           :Company Name
SRVC    .                                       :Service Company
~Parameter Information
#MNEM   .UNITS    VALUE                          DESCRIPTION
#----   ------    -----                          -----------
TDL     .M        3022.00000                    :Total Depth (Logger)
TDD     .M        3022.00000                    :Total Depth (Driller)   
UBID    .         1135                          :Unique Borehole Id  
PDAT    .         Mean Sea Level                :Permanent Datum 
EPD     .M           0.00000                    :Elevation of Permanent Datum (PDAT) above Mean Sea Level
LMF     .         O.R.T.                        :Logging Measured From (Name of Logging Elevation Reference) 
APD     .M           6.78000                    :Elevation of Depth Reference (LMF) Above Permanent Datum
EDF     .M           6.78000                    :Elevation of Derrick Floor Above Mean Sea Level 
~Other Information
composite_curve_qc 
~Curve Information
#MNEM   .UNITS    API CODE                       CURVE DESCRIPTION
#----   ------    --------                       -----------------
DEPT    .M                                      :1     Index curve
GR      .GAPI                                   :2     SNAM  
DT      .US/F                                   :3     SNAM  
RHOB    .G/C3                                   :4     SNAM  
~Ascii Log Data
# ...
    1998.7002     11.934769     67.261292      2.058790
    1998.6002     12.463972     67.228622      2.055095
    1998.5002     12.817263     67.205460      2.051496
    1998.4002     12.897631     67.192856      2.048320
    1998.3002     12.670235     67.190689      2.046681
    1998.2002     12.412361     67.189957      2.047194
    1998.1002     12.261269     67.189941      2.049900
    1998.0002     12.379667     67.189941      2.054180
    1997.9002     12.713013     67.189941      2.058261
    1997.8002     13.104549     67.196320      2.061665
    1997.7002     13.265579     67.210480      2.064591
    1997.6002     13.048159     67.222473      2.068018
    1997.5002     12.316708     67.228806      2.068924
    1997.4002     11.240971     67.229797      2.065819
    1997.3002     10.233545     67.229965      2.061599
    1997.2002      9.650137     67.229980      2.057577
    1997.1002      9.584091     67.229919      2.054768
    1997.0002      9.795534     67.229691      2.053346
    1996.9002     10.126299     67.221909      2.054489
    1996.8002     10.397146     67.204575      2.058007
    1996.7002     10.491106     67.185104      2.062343
    1996.6002     10.332668     67.169083      2.066235
    1996.5002     10.009993     67.158142      2.068564
    1996.4002      9.697237     67.151398      2.068032
    1996.3002      9.487751     67.142807      2.064593
    1996.2002      9.389811     67.130081      2.060144
    1996.1002      9.417484     67.118484      2.057192
    1996.0002      9.604757     67.112015      2.055346
    1995.9002      9.914524     67.110092      2.053307
    1995.8002     10.283859     67.109863      2.051038
    1995.7002     10.668259     67.114471      2.050607
    1995.6002     11.051111     67.127609      2.052955
    1995.5002     11.478100     67.157898      2.057102
    1995.4002     11.756021     67.192734      2.060353
    1995.3002     11.728903     67.218567      2.061271
    1995.2002     11.296337     67.237869      2.060021
    1995.1002     10.758162     67.253021      2.058395
    1995.0002     10.402470     67.264160      2.057686
    1994.9002     10.251253     67.271423      2.057734
    1994.8002     10.256466     67.280304      2.057339
    1994.7002     10.389753     67.295670      2.055704
    1994.6002     10.729006     67.306381      2.052032
    1994.5002     11.214245     67.312012      2.049031
    1994.4002     11.744911     67.320801      2.049757
    1994.3002     12.270029     67.327499      2.052757
    1994.2002     12.661240     67.329453      2.055432
    1994.1002     12.763231     67.329788      2.056615
    1994.0002     12.585766     67.324402      2.055199
    1993.9002     12.266848     67.315262      2.052537
    1993.8002     11.894974     67.310486      2.051283
    1993.7002     11.540955     67.309814      2.051849
    1993.6002     11.236103     67.309814      2.052812
    1993.5002     10.985697     67.309814      2.052628
    1993.4002     10.822020     67.309814      2.052210
    1993.3002     10.741573     67.309601      2.053020
    1993.2002     10.712854     67.308640      2.055294
    1993.1002     10.709991     67.303864      2.057938
    1993.0002     10.714371     67.295273      2.059657
    1992.9002     10.737858     67.290253      2.060359
    1992.8002     10.789392     67.289795      2.060581
    1992.7002     10.867348     67.290024      2.061030
    1992.6002     10.991909     67.291519      2.061616
    1992.5002     11.114138     67.296356      2.059961
    1992.4002     11.105246     67.304550      2.054431
    1992.3002     10.734463     67.311478      2.049946
    1992.2002     10.213907     67.319229      2.049842
    1992.1002     10.217157     67.335709      2.052207
    1992.0002     10.512054     67.362167      2.055588
    1991.9002     10.747587     67.399094      2.057605
    1991.8002     10.670919     67.438156      2.056365
    1991.7002     10.364382     67.476425      2.052178
    1991.6002      9.992846     67.508514      2.046155
    1991.5002      9.752546     67.534439      2.040784
    1991.4002      9.802885     67.555893      2.037869
    1991.3002     10.287086     67.574173      2.039141
    1991.2002     10.881456     67.589645      2.040823
    1991.1002     11.463972     67.601212      2.041085
    1991.0002     11.735540     67.607285      2.038110
    1990.9002     11.670139     67.609863      2.036143
    1990.8002     11.456938     67.609863      2.036706
    1990.7002     11.510029     67.609863      2.041061
    1990.6002     11.589144     67.609863      2.046521
    1990.5002     11.591593     67.609863      2.049953
    1990.4002     11.402393     67.609863      2.047693
    1990.3002     11.111868     67.609863      2.046710
    1990.2002     10.767660     67.609985      2.048633
    1990.1002     10.469349     67.611526      2.051667
    1990.0002     10.170946     67.618103      2.054617
    1989.9002      9.904181     67.627930      2.056297
    1989.8002      9.741268     67.632767      2.056164
    1989.7002      9.648977     67.645905      2.057064
    1989.6002      9.607450     67.677231      2.059636
    1989.5002      9.556158     67.721451      2.060566
    1989.4002      9.525181     67.763733      2.059227
    1989.3002      9.546860     67.794098      2.055134
    1989.2002      9.626528     67.817398      2.050503
    1989.1002      9.772818     67.836655      2.046095
    1989.0002     10.003119     67.852951      2.042670
    1988.9002     10.269728     67.864243      2.040377
    1988.8002     10.556383     67.869873      2.040684
    1988.7002     10.893965     67.869888      2.045567
    1988.6002     11.332973     67.870178      2.052880
    1988.5002     11.756304     67.873932      2.060185
    1988.4002     12.021368     67.885101      2.064525
    1988.3002     12.183966     67.899414      2.067015
    1988.2002     12.180983     67.909821      2.066747
    1988.1002     11.919436     67.905624      2.063313
    1988.0002     11.442213     67.889267      2.059342
    1987.9002     10.805111     67.833588      2.054459
    1987.8002     10.292143     67.737137      2.047320
    1987.7002     10.164362     67.675827      2.035713
    1987.6002     10.413074     67.652710      2.026723
    1987.5002     10.814451     67.652069      2.027331
    1987.4002     11.179832     67.660690      2.028157
    1987.3002     11.406158     67.682053      2.029662
    1987.2002     11.424637     67.713120      2.033484
    1987.1002     11.249895     67.738083      2.037749
    1987.0002     10.889227     67.762482      2.042713
    1986.9002     10.522203     67.795700      2.048122
    1986.8002     10.451012     67.826782      2.050974
    1986.7002     10.743883     67.844803      2.049934
    1986.6002     11.166176     67.849457      2.046949
    1986.5002     11.473532     67.849854      2.045131
    1986.4002     11.759483     67.849854      2.043989
    1986.3002     12.203751     67.849854      2.042156
    1986.2002     12.635195     67.849854      2.042997
    1986.1002     12.893927     67.846954      2.047202
    1986.0002     12.966347     67.840546      2.052112
    1985.9002     12.862398     67.841080      2.053418
    1985.8002     12.616943     67.846893      2.050643
    1985.7002     12.290337     67.849518      2.046354
    1985.6002     11.954531     67.849854      2.041845
    1985.5002     11.698702     67.849854      2.038638
    1985.4002     11.568390     67.850067      2.037634
    1985.3002     11.655128     67.856339      2.039928
    1985.2002     11.843889     67.868042      2.044293
    1985.1002     11.959932     67.880234      2.048739
    1985.0002     11.779087     67.889832      2.051167
    1984.9002     11.473263     67.894684      2.051180
    1984.8002     11.354259     67.893692      2.049490
    1984.7002     11.458569     67.897049      2.048004
    1984.6002     11.659468     67.904907      2.047571
    1984.5002     11.866798     67.909195      2.047861
