# LAS format data
~Version Information
VERS.     2.00: CWLS LOG ASCII STANDARD - VERSION 2.0
WRAP.       NO: ONE LINE PER DEPTH STEP
~Well Information
#MNEM   .UNITS    DATA                           DESCRIPTION
#----   ------    ----                           -----------
STRT    .M        3199.9004                     :First Index Value
STOP    .M        0.1002                        :Last Index Value
STEP    .M        -0.1000                       :Frame Spacing
NULL    .         -999.2500                     :Absent Value
WELL    .         BRH-01                   :Well Name   
FLD     .         GRONINGEN                     :Field Name  
CNTY    .                                       :County
STAT    .                                       :State
CTRY    .                                       :Country
LOC     .                                       :Location
API     .                                       :API Number
DATE    .                                       :Date
COMP    .         NAM                           :Company Name
SRVC    .                                       :Service Company
~Parameter Information
#MNEM   .UNITS    VALUE                          DESCRIPTION
#----   ------    -----                          -----------
TDL     .M        3022.00000                    :Total Depth (Logger)
TDD     .M        3022.00000                    :Total Depth (Driller)   
UBID    .         1135                          :Unique Borehole Id  
PDAT    .         Mean Sea Level                :Permanent Datum 
EPD     .M           0.00000                    :Elevation of Permanent Datum (PDAT) above Mean Sea Level
LMF     .         O.R.T.                        :Logging Measured From (Name of Logging Elevation Reference) 
APD     .M           6.78000                    :Elevation of Depth Reference (LMF) Above Permanent Datum
EDF     .M           6.78000                    :Elevation of Derrick Floor Above Mean Sea Level 
~Other Information
composite_curve_qc 
~Curve Information
#MNEM   .UNITS    API CODE                       CURVE DESCRIPTION
#----   ------    --------                       -----------------
DEPT    .M                                      :1     Index curve
GR      .GAPI                                   :2     SNAM  
DT      .US/F                                   :3     SNAM  
RHOB    .G/C3                                   :4     SNAM  
~Ascii Log Data
# ...
    2556.4005     14.459799     68.512161      2.049026
    2556.3005     14.292604     68.419800      2.053325
    2556.2005     14.372328     68.263947      2.057034
    2556.1005     14.394547     68.058029      2.058774
    2556.0005     14.176594     68.040466      2.056540
    2555.9005     13.888456     68.233871      2.054556
    2555.8005     13.731409     68.492615      2.056771
    2555.7005     13.623255     68.650360      2.060993
    2555.6005     13.342566     68.622299      2.063976
    2555.5005     12.836950     68.485825      2.064474
    2555.4005     12.322609     68.427078      2.065440
    2555.3005     12.007502     68.443115      2.068775
    2555.2005     11.921955     68.440674      2.074029
    2555.1005     11.916294     68.368256      2.079601
    2555.0005     11.992363     68.321014      2.082786
    2554.9005     12.193615     68.378113      2.082543
    2554.8005     12.561712     68.505295      2.079460
    2554.7005     13.056995     68.651901      2.074031
    2554.6005     13.557734     68.787003      2.067141
    2554.5005     13.794558     68.885910      2.060076
    2554.4005     13.806517     68.932220      2.055507
    2554.3005     13.820337     68.931274      2.054206
    2554.2005     14.120371     68.870010      2.053966
    2554.1005     14.539114     68.756805      2.053186
    2554.0005     14.780113     68.621582      2.051916
    2553.9005     14.642395     68.533188      2.053025
    2553.8005     14.131071     68.544220      2.057976
    2553.7005     13.374601     68.653320      2.066038
    2553.6005     12.885845     68.689529      2.073083
    2553.5005     12.856571     68.624634      2.077281
    2553.4005     13.170675     68.536224      2.079285
    2553.3005     13.575312     68.564896      2.077615
    2553.2005     13.727301     68.643677      2.074423
    2553.1005     13.405605     68.622910      2.073085
    2553.0005     12.880285     68.493073      2.075785
    2552.9005     12.579268     68.399353      2.080740
    2552.8005     12.768597     68.500900      2.084651
    2552.7005     13.328495     68.702881      2.086128
    2552.6005     14.022375     68.842712      2.085807
    2552.5005     14.742390     68.833832      2.084760
    2552.4005     15.411921     68.677383      2.082872
    2552.3005     15.962868     68.517166      2.081045
    2552.2005     16.349415     68.567352      2.081558
    2552.1005     16.560246     68.744202      2.083549
    2552.0005     16.654037     68.845016      2.084369
    2551.9005     16.688351     68.801468      2.082073
    2551.8005     16.694164     68.633682      2.075831
    2551.7005     16.692696     68.431854      2.067863
    2551.6005     16.680309     68.242142      2.062106
    2551.5005     16.632271     68.120789      2.060788
    2551.4005     16.531376     68.087585      2.062551
    2551.3005     16.357086     68.121490      2.064837
    2551.2005     16.072380     68.219269      2.066097
    2551.1005     15.672630     68.352707      2.066832
    2551.0005     15.150833     68.363785      2.068836
    2550.9005     14.524925     68.226868      2.073674
    2550.8005     13.852779     68.126114      2.080622
    2550.7005     13.128733     68.093109      2.086744
    2550.6005     12.435671     68.130341      2.088552
    2550.5005     11.875416     68.182526      2.086483
    2550.4005     11.570723     68.212006      2.081987
    2550.3005     11.689810     68.137589      2.078802
    2550.2005     12.148405     67.907715      2.080238
    2550.1005     12.823586     67.676376      2.085033
    2550.0005     13.503016     67.650742      2.090347
    2549.9005     14.163439     67.763641      2.095225
    2549.8005     14.806025     67.944397      2.099598
    2549.7005     15.455996     68.056793      2.103960
    2549.6005     16.067017     68.124390      2.108584
    2549.5005     16.484917     68.149536      2.110189
    2549.4005     16.528290     68.158493      2.104446
    2549.3005     16.372025     68.165222      2.097244
    2549.2005     16.214375     68.173889      2.089579
    2549.1005     16.423450     68.187225      2.082628
    2549.0005     16.748070     68.196060      2.079309
    2548.9005     17.021847     68.175919      2.081005
    2548.8005     16.989643     68.086914      2.086014
    2548.7005     16.773659     67.942841      2.092814
    2548.6005     16.573956     67.741867      2.098995
    2548.5005     16.824177     67.548309      2.098440
    2548.4005     17.061398     67.405319      2.093169
    2548.3005     16.898144     67.345795      2.087631
    2548.2005     16.199249     67.329559      2.093190
    2548.1005     15.372612     67.327744      2.101179
    2548.0005     14.865084     67.320648      2.104784
    2547.9005     15.036922     67.305099      2.103079
    2547.8005     15.564468     67.288925      2.100749
    2547.7005     16.183292     67.278854      2.101691
    2547.6005     16.717567     67.272644      2.103119
    2547.5005     17.185734     67.269775      2.101059
    2547.4005     17.557617     67.269791      2.092936
    2547.3005     17.810230     67.270004      2.088909
    2547.2005     17.910744     67.273895      2.089658
    2547.1005     17.802711     67.298996      2.094105
    2547.0005     17.577766     67.375839      2.094828
    2546.9005     17.280640     67.611328      2.091993
    2546.8005     17.021393     68.074265      2.086863
    2546.7005     16.816193     68.505280      2.081390
    2546.6005     16.706181     68.799454      2.078401
    2546.5005     16.696136     68.861618      2.080410
    2546.4005     16.694946     68.786636      2.083074
    2546.3005     16.573738     68.653046      2.084491
    2546.2005     16.126514     68.611160      2.084157
    2546.1005     15.275269     68.661407      2.086120
    2546.0005     14.208021     68.658783      2.088191
    2545.9005     13.324213     68.412079      2.086751
    2545.8005     12.680601     67.983643      2.084192
    2545.7005     12.317347     67.644714      2.082899
    2545.6005     12.165110     67.647263      2.084159
    2545.5005     12.237856     67.781891      2.086082
    2545.4005     12.491770     67.773544      2.085650
    2545.3005     12.730869     67.528931      2.081535
    2545.2005     12.695478     67.448654      2.076766
    2545.1005     12.342373     67.648254      2.075018
    2545.0005     11.905016     67.924713      2.077287
    2544.9005     11.627283     68.137756      2.080499
    2544.8005     11.627525     68.239334      2.081900
    2544.7005     11.814983     68.277161      2.080850
    2544.6005     12.089285     68.271378      2.076702
    2544.5005     12.440218     68.233887      2.070560
    2544.4005     12.878849     68.176605      2.064883
    2544.3005     13.280460     68.091797      2.066882
    2544.2005     13.527952     67.979355      2.076223
    2544.1005     13.616156     67.847107      2.087414
    2544.0005     13.759918     67.698395      2.098788
    2543.9005     14.075420     67.639801      2.108496
    2543.8005     14.532894     67.775391      2.115226
    2543.7005     15.012335     67.971207      2.118126
    2543.6005     15.387236     68.097427      2.117297
    2543.5005     15.606766     68.135223      2.112998
    2543.4005     15.225283     68.124908      2.105823
    2543.3005     14.296160     68.125641      2.098714
    2543.2005     13.216896     68.178314      2.094950
    2543.1005     12.559980     68.274826      2.093065
    2543.0005     12.398775     68.367432      2.090237
    2542.9005     12.490093     68.403366      2.084832
    2542.8005     12.683905     68.341156      2.078215
    2542.7005     12.939945     68.212860      2.072063
    2542.6005     13.302490     68.081619      2.067173
    2542.5005     13.788919     67.986938      2.066478
    2542.4005     14.220512     67.927673      2.069322
    2542.3005     14.129757     67.900238      2.071239
    2542.2005     13.554432     67.906708      2.072967
