# LAS format data
~Version Information
VERS.     2.00: CWLS LOG ASCII STANDARD - VERSION 2.0
WRAP.       NO: ONE LINE PER DEPTH STEP
~Well Information
#MNEM   .UNITS    DATA                           DESCRIPTION
#----   ------    ----                           -----------
STRT    .M        3199.9004                     :First Index Value
STOP    .M        0.1002                        :Last Index Value
STEP    .M        -0.1000                       :Frame Spacing
NULL    .         -999.2500                     :Absent Value
WELL    .         BRH-01                   :Well Name   
FLD     .         GRONINGEN                     :Field Name  
CNTY    .                                       :County
STAT    .                                       :State
CTRY    .                                       :Country
LOC     .                                       :Location
API     .                                       :API Number
DATE    .                                       :Date
COMP    .         NAM                           :Company Name
SRVC    .                                       :Service Company
~Parameter Information
#MNEM   .UNITS    VALUE                          DESCRIPTION
#----   ------    -----                          -----------
TDL     .M        3022.00000                    :Total Depth (Logger)
TDD     .M        3022.00000                    :Total Depth (Driller)   
UBID    .         1135                          :Unique Borehole Id  
PDAT    .         Mean Sea Level                :Permanent Datum 
EPD     .M           0.00000                    :Elevation of Permanent Datum (PDAT) above Mean Sea Level
LMF     .         O.R.T.                        :Logging Measured From (Name of Logging Elevation Reference) 
APD     .M           6.78000                    :Elevation of Depth Reference (LMF) Above Permanent Datum
EDF     .M           6.78000                    :Elevation of Derrick Floor Above Mean Sea Level 
~Other Information
composite_curve_qc 
~Curve Information
#MNEM   .UNITS    API CODE                       CURVE DESCRIPTION
#----   ------    --------                       -----------------
DEPT    .M                                      :1     Index curve
GR      .GAPI                                   :2     SNAM  
DT      .US/F                                   :3     SNAM  
RHOB    .G/C3                                   :4     SNAM  
~Ascii Log Data
# ...
     497.2002     39.047447    161.244476   -999.250000
     497.1002     39.128342    161.001373   -999.250000
     497.0002     38.696327    160.566162   -999.250000
     496.9002     38.125618    159.773804   -999.250000
     496.8002     37.865143    158.359161   -999.250000
     496.7002     38.099922    157.110840   -999.250000
     496.6002     38.625427    156.983063   -999.250000
     496.5002     39.150063    156.927704   -999.250000
     496.4002     39.264259    156.515869   -999.250000
     496.3002     38.765800    156.373657   -999.250000
     496.2002     37.900208    155.154816   -999.250000
     496.1002     37.008194    151.640747   -999.250000
     496.0002     36.236107    146.348236   -999.250000
     495.9002     35.957748    142.511749   -999.250000
     495.8002     36.386536    142.465393   -999.250000
     495.7002     37.063019    143.162842   -999.250000
     495.6002     37.723495    144.647064   -999.250000
     495.5002     38.160370    147.240601   -999.250000
     495.4002     38.649811    150.811890   -999.250000
     495.3002     39.301323    154.755341   -999.250000
     495.2002     40.154671    157.788391   -999.250000
     495.1002     40.955818    159.430511   -999.250000
     495.0002     41.537766    158.399963   -999.250000
     494.9002     41.730026    154.472137   -999.250000
     494.8002     41.616837    151.268433   -999.250000
     494.7002     41.066887    149.538605   -999.250000
     494.6002     40.149971    148.549438   -999.250000
     494.5002     39.305573    148.421448   -999.250000
     494.4002     38.871407    150.186005   -999.250000
     494.3002     39.047447    154.252167   -999.250000
     494.2002     39.427177    157.696136   -999.250000
     494.1002     39.806023    159.282623   -999.250000
     494.0002     39.990829    160.555267   -999.250000
     493.9002     39.811607    162.272339   -999.250000
     493.8002     39.004684    164.540131   -999.250000
     493.7002     37.814278    165.883759   -999.250000
     493.6002     36.901535    166.399506   -999.250000
     493.5002     36.993996    166.069122   -999.250000
     493.4002     37.636955    165.643890   -999.250000
     493.3002     38.661682    165.252563   -999.250000
     493.2002     39.867790    164.991455   -999.250000
     493.1002     41.105148    164.297577   -999.250000
     493.0002     42.376350    161.301483   -999.250000
     492.9002     43.642471    153.659424   -999.250000
     492.8002     44.624191    145.082794   -999.250000
     492.7002     44.915413    136.659851   -999.250000
     492.6002     44.076195    130.775696   -999.250000
     492.5002     43.019295    128.683258   -999.250000
     492.4002     41.830147    129.902313   -999.250000
     492.3002     40.664207    133.665009   -999.250000
     492.2002     39.565186    143.096741   -999.250000
     492.1002     38.890503    155.140747   -999.250000
     492.0002     38.934708    162.275970   -999.250000
     491.9002     38.959175    165.282928   -999.250000
     491.8002     38.867889    161.657074   -999.250000
     491.7002     38.799561    152.049072   -999.250000
     491.6002     38.972946    145.601807   -999.250000
     491.5002     39.254868    143.966278   -999.250000
     491.4002     39.220512    143.766907   -999.250000
     491.3002     38.831596    144.530365   -999.250000
     491.2002     38.016663    147.895264   -999.250000
     491.1002     36.966652    154.886444   -999.250000
     491.0002     35.828499    163.022308   -999.250000
     490.9002     34.851883    169.514038   -999.250000
     490.8002     34.319725    172.470367   -999.250000
     490.7002     34.302490    174.085022   -999.250000
     490.6002     34.744347    175.483307   -999.250000
     490.5002     35.316795    176.579590   -999.250000
     490.4002     35.893799    177.142029   -999.250000
     490.3002     36.395180    177.089722   -999.250000
     490.2002     36.806786    176.657440   -999.250000
     490.1002     36.960190    175.673157   -999.250000
     490.0002     36.947510    174.201538   -999.250000
     489.9002     37.096344    172.561920   -999.250000
     489.8002     38.560532    171.080475   -999.250000
     489.7002     41.570419    169.894531   -999.250000
     489.6002     45.330917    168.825592   -999.250000
     489.5002     48.304276    167.850586   -999.250000
     489.4002     49.977745    167.114868   -999.250000
     489.3002     51.058701    166.792816   -999.250000
     489.2002     52.310204    166.761078   -999.250000
     489.1002     54.508102    166.658600   -999.250000
     489.0002     58.129959    166.202759   -999.250000
     488.9002     61.797554    165.571869   -999.250000
     488.8002     64.605957    164.681946   -999.250000
     488.7002     66.705963    163.066589   -999.250000
     488.6002     67.661896    159.661804   -999.250000
     488.5002     67.442047    155.284729   -999.250000
     488.4002     66.311310    152.349609   -999.250000
     488.3002     64.493042    152.157043   -999.250000
     488.2002     62.178619    154.460236   -999.250000
     488.1002     59.314255    159.251526   -999.250000
     488.0002     55.708580    164.036621   -999.250000
     487.9002     51.519440    166.931519   -999.250000
     487.8002     47.171478    167.721893   -999.250000
     487.7002     43.572350    166.762817   -999.250000
     487.6002     41.117813    164.465576   -999.250000
     487.5002     39.533691    160.131134   -999.250000
     487.4002     38.686615    155.734375   -999.250000
     487.3002     38.434662    153.326569   -999.250000
     487.2002     38.436417    152.783051   -999.250000
     487.1002     38.347771    153.398651   -999.250000
     487.0002     38.046585    154.805603   -999.250000
     486.9002     37.569252    159.441895   -999.250000
     486.8002     37.395958    165.674652   -999.250000
     486.7002     37.930855    169.989014   -999.250000
     486.6002     39.242004    170.578979   -999.250000
     486.5002     40.848549    168.242401   -999.250000
     486.4002     42.254417    165.016296   -999.250000
     486.3002     43.506836    161.176239   -999.250000
     486.2002     44.623566    157.603790   -999.250000
     486.1002     45.515533    155.343567   -999.250000
     486.0002     45.135056    154.325531   -999.250000
     485.9002     43.267982    153.833771   -999.250000
     485.8002     41.085594    153.371826   -999.250000
     485.7002     39.069756    152.789032   -999.250000
     485.6002     37.589882    152.341553   -999.250000
     485.5002     37.006317    152.741058   -999.250000
     485.4002     37.169426    153.718811   -999.250000
     485.3002     37.262215    154.783386   -999.250000
     485.2002     36.698784    156.765411   -999.250000
     485.1002     35.675011    160.489807   -999.250000
     485.0002     34.996788    165.451324   -999.250000
     484.9002     34.823318    169.231567   -999.250000
     484.8002     35.079300    170.829132   -999.250000
     484.7002     35.252541    171.573181   -999.250000
     484.6002     35.368896    171.819641   -999.250000
     484.5002     35.412712    171.771790   -999.250000
     484.4002     35.360672    171.745850   -999.250000
     484.3002     35.219200    172.040924   -999.250000
     484.2002     35.065468    172.704956   -999.250000
     484.1002     35.041389    173.139801   -999.250000
     484.0002     34.838097    173.158569   -999.250000
     483.9002     34.194061    172.626312   -999.250000
     483.8002     33.547028    172.064789   -999.250000
     483.7002     33.435921    171.512878   -999.250000
     483.6002     34.348999    171.027557   -999.250000
     483.5002     35.163033    170.670837   -999.250000
     483.4002     35.737923    170.567993   -999.250000
     483.3002     35.909760    170.775787   -999.250000
     483.2002     36.031090    170.474243   -999.250000
     483.1002     36.330467    167.818970   -999.250000
     483.0002     37.072060    161.300232   -999.250000
