# LAS format data
~Version Information
VERS.     2.00: CWLS LOG ASCII STANDARD - VERSION 2.0
WRAP.       NO: ONE LINE PER DEPTH STEP
~Well Information
#MNEM   .UNITS    DATA                           DESCRIPTION
#----   ------    ----                           -----------
STRT    .M        3199.9004                     :First Index Value
STOP    .M        0.1002                        :Last Index Value
STEP    .M        -0.1000                       :Frame Spacing
NULL    .         -999.2500                     :Absent Value
WELL    .         BRH-01                   :Well Name   
FLD     .         GRONINGEN                     :Field Name  
CNTY    .                                       :County
STAT    .                                       :State
CTRY    .                                       :Country
LOC     .                                       :Location
API     .                                       :API Number
DATE    .                                       :Date
COMP    .         NAM                           :Company Name
SRVC    .                                       :Service Company
~Parameter Information
#MNEM   .UNITS    VALUE                          DESCRIPTION
#----   ------    -----                          -----------
TDL     .M        3022.00000                    :Total Depth (Logger)
TDD     .M        3022.00000                    :Total Depth (Driller)   
UBID    .         1135                          :Unique Borehole Id  
PDAT    .         Mean Sea Level                :Permanent Datum 
EPD     .M           0.00000                    :Elevation of Permanent Datum (PDAT) above Mean Sea Level
LMF     .         O.R.T.                        :Logging Measured From (Name of Logging Elevation Reference) 
APD     .M           6.78000                    :Elevation of Depth Reference (LMF) Above Permanent Datum
EDF     .M           6.78000                    :Elevation of Derrick Floor Above Mean Sea Level 
~Other Information
composite_curve_qc 
~Curve Information
#MNEM   .UNITS    API CODE                       CURVE DESCRIPTION
#----   ------    --------                       -----------------
DEPT    .M                                      :1     Index curve
GR      .GAPI                                   :2     SNAM  
DT      .US/F                                   :3     SNAM  
RHOB    .G/C3                                   :4     SNAM  
~Ascii Log Data
# ...
    3099.8003     80.779556     68.437241      2.597954
    3099.7003     80.530029     69.013916      2.593602
    3099.6003     81.326187     69.475204      2.589303
    3099.5003     82.658173     69.555344      2.583138
    3099.4003     83.527573     69.296494      2.576670
    3099.3003     83.451965     69.114410      2.574750
    3099.2003     81.908371     69.105667      2.571461
    3099.1003     79.267303     69.162827      2.561352
    3099.0003     76.787933     69.036163      2.547634
    3098.9003     74.782928     69.249680      2.531233
    3098.8003     73.403717     70.104355      2.516460
    3098.7003     72.885529     70.846130      2.510271
    3098.6003     74.069153     71.030884      2.518281
    3098.5003     77.241165     70.893631      2.536946
    3098.4003     81.720734     71.673630      2.554379
    3098.3003     86.834656     73.165543      2.563170
    3098.2003     91.904434     74.256973      2.561975
    3098.1003     97.271240     75.237061      2.558535
    3098.0003    102.813461     75.966110      2.554826
    3097.9003    107.707657     76.094971      2.551297
    3097.8003    111.294220     75.692764      2.550749
    3097.7003    112.991150     74.802979      2.551287
    3097.6003    113.310028     73.835739      2.545804
    3097.5003    112.936035     72.954483      2.538764
    3097.4003    111.542679     72.405731      2.535626
    3097.3003    108.300217     72.408813      2.541508
    3097.2003    104.161453     72.611481      2.549347
    3097.1003     99.903687     72.714890      2.551544
    3097.0003     96.289276     72.637924      2.545169
    3096.9003     93.430756     72.514282      2.534105
    3096.8003     91.425705     72.577789      2.523788
    3096.7003     89.496933     73.008469      2.519811
    3096.6003     87.508362     73.657394      2.516581
    3096.5003     85.494934     74.352386      2.507594
    3096.4003     84.381668     75.057541      2.499615
    3096.3003     84.287994     75.728516      2.493937
    3096.2003     85.473434     76.179764      2.495138
    3096.1003     87.642212     76.262634      2.506233
    3096.0003     91.405304     75.966949      2.521794
    3095.9003     98.021149     75.424942      2.530340
    3095.8003    108.108643     74.855545      2.540539
    3095.7003    118.747421     74.348480      2.552584
    3095.6003    122.714218     74.067459      2.562134
    3095.5003    123.864990     73.851929      2.563592
    3095.4003    122.365555     73.716537      2.556993
    3095.3003    119.309952     73.667145      2.549322
    3095.2003    115.454865     73.611008      2.541233
    3095.1003    111.193893     73.485916      2.535063
    3095.0003    107.492981     73.194427      2.534197
    3094.9003    105.562927     72.622955      2.537938
    3094.8003    105.973999     71.577774      2.540986
    3094.7003    107.141434     70.081238      2.533991
    3094.6003    108.401108     68.580536      2.526545
    3094.5003    109.530411     67.116333      2.524149
    3094.4003    110.726974     65.418411      2.527297
    3094.3003    112.090393     63.757767      2.536981
    3094.2003    112.622818     62.472351      2.561805
    3094.1003    110.642365     61.764107      2.604395
    3094.0003    105.256531     61.552483      2.639374
    3093.9003     97.403015     61.818100      2.654579
    3093.8003     90.855118     62.418320      2.665284
    3093.7003     86.044479     63.347038      2.668697
    3093.6003     82.946259     64.515778      2.664338
    3093.5003     80.849136     65.691299      2.657614
    3093.4003     80.850021     66.735886      2.652803
    3093.3003     83.820068     67.596313      2.650292
    3093.2003     89.003464     68.365601      2.645648
    3093.1003     94.693054     68.976501      2.640552
    3093.0003     99.530304     69.421417      2.637583
    3092.9003    103.859619     69.782150      2.637321
    3092.8003    106.678421     70.070297      2.631316
    3092.7003    108.142899     70.374222      2.617483
    3092.6003    109.734131     70.822952      2.602851
    3092.5003    112.762634     71.599396      2.588447
    3092.4003    117.086685     72.584091      2.577151
    3092.3003    121.626663     73.478455      2.574412
    3092.2003    126.497833     74.168442      2.578831
    3092.1003    131.527496     74.615540      2.585813
    3092.0003    135.802124     74.709930      2.593339
    3091.9003    139.028778     74.519272      2.600115
    3091.8003    141.755035     74.218018      2.604983
    3091.7003    144.627869     73.877731      2.605963
    3091.6003    145.948792     73.733444      2.611625
    3091.5003    145.058807     73.785965      2.623264
    3091.4003    143.002197     73.664413      2.625505
    3091.3003    140.687073     73.296249      2.622334
    3091.2003    138.779053     72.823669      2.622233
    3091.1003    139.040222     72.359985      2.620951
    3091.0003    139.757294     72.090027      2.614921
    3090.9003    138.847198     72.118408      2.604949
    3090.8003    136.362915     72.596664      2.592536
    3090.7003    132.937622     73.282669      2.581199
    3090.6003    129.047974     73.875565      2.573847
    3090.5003    125.354462     74.310806      2.575705
    3090.4003    123.164398     74.598190      2.583287
    3090.3003    123.241730     74.751587      2.590286
    3090.2003    125.649673     74.889404      2.595435
    3090.1003    130.020477     74.957016      2.600089
    3090.0003    135.787445     74.820557      2.605426
    3089.9003    140.026306     73.964218      2.608423
    3089.8003    141.844879     72.629486      2.611980
    3089.7003    142.781067     71.546951      2.622510
    3089.6003    142.880737     71.010696      2.629356
    3089.5003    141.019592     71.058655      2.626180
    3089.4003    135.788879     71.677917      2.618011
    3089.3003    128.054260     72.641739      2.609168
    3089.2003    121.045212     73.576752      2.602995
    3089.1003    117.310211     74.374481      2.599882
    3089.0003    118.155396     74.870346      2.599713
    3088.9003    122.508896     75.243103      2.600113
    3088.8003    128.886902     76.130234      2.597619
    3088.7003    133.977997     77.575974      2.594110
    3088.6003    135.098999     79.082062      2.593375
    3088.5003    134.518341     80.453049      2.594615
    3088.4003    134.101898     81.247986      2.603722
    3088.3003    134.988373     81.218506      2.623536
    3088.2003    136.315277     80.719864      2.642745
    3088.1003    137.550079     80.121750      2.658670
    3088.0003    138.662720     79.771149      2.677189
    3087.9003    140.003082     79.461487      2.693173
    3087.8003    141.508270     79.172256      2.699389
    3087.7003    142.646423     79.018433      2.696080
    3087.6003    142.525940     78.858551      2.684394
    3087.5003    141.190765     78.605133      2.668165
    3087.4003    140.902618     78.328705      2.656192
    3087.3003    141.510956     77.946396      2.647967
    3087.2003    142.514923     77.431366      2.645679
    3087.1003    142.852661     77.008850      2.653443
    3087.0003    142.277435     76.777695      2.667727
    3086.9003    140.725647     76.822037      2.680106
    3086.8003    139.257690     76.944427      2.681104
    3086.7003    137.935394     77.092178      2.674533
    3086.6003    136.828705     77.125351      2.667299
    3086.5003    135.901215     76.954376      2.657564
    3086.4003    135.345764     76.696609      2.646544
    3086.3003    135.353699     76.559341      2.636656
    3086.2003    135.504822     76.329391      2.628196
    3086.1003    135.548737     76.179001      2.628259
    3086.0003    135.106964     76.451111      2.643809
    3085.9003    134.635071     76.806793      2.650609
    3085.8003    134.447327     77.099258      2.647526
    3085.7003    134.845215     77.183136      2.646042
    3085.6003    135.060669     77.325363      2.644563
