# LAS format data
~Version Information
VERS.     2.00: CWLS LOG ASCII STANDARD - VERSION 2.0
WRAP.       NO: ONE LINE PER DEPTH STEP
~Well Information
#MNEM   .UNITS    DATA                           DESCRIPTION
#----   ------    ----                           -----------
STRT    .M        3199.9004                     :First Index Value
STOP    .M        0.1002                        :Last Index Value
STEP    .M        -0.1000                       :Frame Spacing
NULL    .         -999.2500                     :Absent Value
WELL    .         BRH-01                   :Well Name   
FLD     .         GRONINGEN                     :Field Name  
CNTY    .                                       :County
STAT    .                                       :State
CTRY    .                                       :Country
LOC     .                                       :Location
API     .                                       :API Number
DATE    .                                       :Date
COMP    .         NAM                           :Company Name
SRVC    .                                       :Service Company
~Parameter Information
#MNEM   .UNITS    VALUE                          DESCRIPTION
#----   ------    -----                          -----------
TDL     .M        3022.00000                    :Total Depth (Logger)
TDD     .M        3022.00000                    :Total Depth (Driller)   
UBID    .         1135                          :Unique Borehole Id  
PDAT    .         Mean Sea Level                :Permanent Datum 
EPD     .M           0.00000                    :Elevation of Permanent Datum (PDAT) above Mean Sea Level
LMF     .         O.R.T.                        :Logging Measured From (Name of Logging Elevation Reference) 
APD     .M           6.78000                    :Elevation of Depth Reference (LMF) Above Permanent Datum
EDF     .M           6.78000                    :Elevation of Derrick Floor Above Mean Sea Level 
~Other Information
composite_curve_qc 
~Curve Information
#MNEM   .UNITS    API CODE                       CURVE DESCRIPTION
#----   ------    --------                       -----------------
DEPT    .M                                      :1     Index curve
GR      .GAPI                                   :2     SNAM  
DT      .US/F                                   :3     SNAM  
RHOB    .G/C3                                   :4     SNAM  
~Ascii Log Data
# ...
    1812.8004    107.032730     91.121048      2.511190
    1812.7004    107.786591     90.714981      2.508362
    1812.6004    109.414642     90.389771      2.498254
    1812.5004    111.250214     90.141464      2.490149
    1812.4004    111.815216     90.016464      2.499224
    1812.3004    111.330200     90.068344      2.509357
    1812.2004    110.219376     90.311462      2.515375
    1812.1004    109.844711     90.583450      2.517756
    1812.0004    110.390839     90.774506      2.520996
    1811.9004    111.950073     90.909317      2.527166
    1811.8004    113.656479     91.193893      2.533907
    1811.7004    115.005600     91.541183      2.535074
    1811.6004    115.544006     91.837799      2.528495
    1811.5004    115.682938     91.961426      2.523973
    1811.4004    116.035309     91.957245      2.521455
    1811.3004    117.090042     91.922989      2.519924
    1811.2004    118.308456     92.116241      2.515516
    1811.1004    118.808502     92.582901      2.511066
    1811.0004    117.878372     93.402054      2.508878
    1810.9004    117.252396     94.394363      2.505100
    1810.8004    117.072632     95.403336      2.496966
    1810.7004    117.233292     96.226456      2.483691
    1810.6004    116.622665     96.870377      2.477418
    1810.5004    115.435074     97.271851      2.474967
    1810.4004    114.137222     97.317825      2.471642
    1810.3004    113.217575     97.040588      2.470971
    1810.2004    112.630005     96.413712      2.473665
    1810.1004    112.020020     95.467590      2.479655
    1810.0004    110.882828     94.467896      2.484881
    1809.9004    109.116119     93.504288      2.490298
    1809.8004    106.913788     92.734024      2.497033
    1809.7004    105.092834     92.222717      2.500204
    1809.6004    104.221786     92.066696      2.498413
    1809.5004    104.801697     92.247757      2.493841
    1809.4004    106.241180     92.557922      2.493081
    1809.3004    108.314255     92.836792      2.496777
    1809.2004    110.012024     92.784698      2.501329
    1809.1004    110.638260     92.394623      2.507885
    1809.0004    109.754272     91.678650      2.514062
    1808.9004    107.933823     90.915741      2.514596
    1808.8004    105.645676     90.045853      2.512866
    1808.7004    103.113358     89.070999      2.511704
    1808.6004    100.834976     88.274094      2.513173
    1808.5004     99.061234     88.188492      2.511974
    1808.4004     98.658188     88.867752      2.509566
    1808.3004     99.997086     89.506729      2.512645
    1808.2004    101.536865     89.728134      2.516313
    1808.1004    102.172440     89.444916      2.520657
    1808.0004    102.076645     89.110840      2.529511
    1807.9004    101.877243     88.803040      2.536523
    1807.8004    101.876785     88.561966      2.537641
    1807.7004    101.836899     88.362518      2.535903
    1807.6004    101.735229     88.309464      2.533921
    1807.5004    101.709641     88.314636      2.530820
    1807.4004    101.926163     88.133560      2.523217
    1807.3004    102.006058     87.616562      2.519486
    1807.2004    101.765106     86.913376      2.521261
    1807.1004    101.433884     86.352951      2.520520
    1807.0004    101.458374     86.099808      2.514538
    1806.9004    102.102463     86.159622      2.507051
    1806.8004    103.275406     86.449631      2.504298
    1806.7004    104.954330     87.216049      2.506130
    1806.6004    106.706314     88.186691      2.508919
    1806.5004    107.934830     88.687683      2.509920
    1806.4004    107.609009     88.511780      2.507821
    1806.3004    106.437729     87.925278      2.504443
    1806.2004    106.502579     87.220306      2.503170
    1806.1004    106.739853     87.018356      2.506009
    1806.0004    106.094543     87.498764      2.511219
    1805.9004    105.234924     88.388519      2.514997
    1805.8004    104.651413     89.466415      2.517532
    1805.7004    104.447754     90.596268      2.520453
    1805.6004    104.841690     91.764526      2.524729
    1805.5004    105.744949     92.599319      2.525586
    1805.4004    106.699448     92.911835      2.521069
    1805.3004    106.932648     92.805801      2.514960
    1805.2004    106.139740     92.404922      2.514893
    1805.1004    104.654800     91.804291      2.522132
    1805.0004    102.920761     90.903488      2.527302
    1804.9004    101.417145     89.787323      2.529190
    1804.8004    100.351105     88.600739      2.531456
    1804.7004    100.122131     87.372955      2.531715
    1804.6004    100.785858     86.338272      2.531116
    1804.5004    102.035614     85.674240      2.532648
    1804.4004    103.112305     85.775879      2.535437
    1804.3004    103.912689     86.641556      2.534204
    1804.2004    104.848709     87.978745      2.525296
    1804.1004    105.865601     88.890350      2.516860
    1804.0004    106.525757     89.160858      2.514846
    1803.9004    106.447708     89.288574      2.518166
    1803.8004    105.684509     89.433441      2.526203
    1803.7004    104.608932     89.407135      2.535240
    1803.6004    103.500839     88.866135      2.540759
    1803.5004    102.473572     88.483307      2.538750
    1803.4004    101.489197     88.587601      2.530654
    1803.3004    100.432007     88.543121      2.521754
    1803.2004     99.711411     88.619720      2.514095
    1803.1004     99.627625     89.087646      2.507426
    1803.0004    100.035126     89.561630      2.500328
    1802.9004    100.854660     89.847870      2.497410
    1802.8004    101.841583     89.950134      2.501945
    1802.7004    102.725998     89.973648      2.508191
    1802.6004    103.522034     89.964066      2.513785
    1802.5004    104.318878     89.962524      2.518139
    1802.4004    104.787338     90.012222      2.520456
    1802.3004    104.995895     90.139984      2.517145
    1802.2004    105.409668     90.316757      2.506242
    1802.1004    105.959976     90.487167      2.494045
    1802.0004    106.344101     90.620850      2.485776
    1801.9004    106.145355     90.713425      2.483205
    1801.8004    105.976883     90.776566      2.477927
    1801.7004    106.295197     90.817062      2.468096
    1801.6004    106.816681     90.848969      2.465783
    1801.5004    106.944458     90.868408      2.468836
    1801.4004    106.154266     90.859741      2.475064
    1801.3004    105.149033     90.809601      2.480684
    1801.2004    104.248917     90.709106      2.485237
    1801.1004    103.974487     90.549789      2.488355
    1801.0004    104.362732     90.379578      2.491405
    1800.9004    105.095627     90.181885      2.495828
    1800.8004    105.541351     89.947922      2.501094
    1800.7004    105.695206     89.724121      2.498769
    1800.6004    105.658417     89.560287      2.489722
    1800.5004    105.688110     89.545319      2.480078
    1800.4004    105.780136     89.596008      2.476980
    1800.3004    106.045029     89.736160      2.480219
    1800.2004    106.690735     89.990311      2.486570
    1800.1004    107.697128     90.336456      2.497410
    1800.0004    108.737213     90.815125      2.509543
    1799.9004    108.911804     91.454117      2.514153
    1799.8004    108.138962     92.177460      2.514311
    1799.7004    106.555252     92.900223      2.513113
    1799.6004    105.288208     93.462234      2.517682
    1799.5004    104.641556     93.825058      2.522818
    1799.4004    104.548813     93.862564      2.523908
    1799.3004    104.233276     93.588730      2.516865
    1799.2004    104.719925     93.151398      2.507648
    1799.1004    106.912811     92.526764      2.498521
    1799.0004    110.314301     91.671982      2.489372
    1798.9004    112.514282     90.778885      2.481680
    1798.8004    111.867401     89.964355      2.477132
    1798.7004    109.752029     89.238724      2.475657
    1798.6004    107.351303     88.650803      2.475900
